{"version": 0.6, "generator": "Overpass API 0.7.56.9 76e5016d", "osm3s": {"timestamp_osm_base": "2021-06-22T13:13:57Z", "copyright": "The data included in this document is from www.openstreetmap.org. The data is made available under ODbL."}, "elements": [{"type": "node", "id": 24958713, "lat": 55.6892934, "lon": 12.5578332, "tags": {"amenity": "pub", "fvst:name": "Cerevisia", "fvst:navnelbnr": "111614", "name": "\u00d8lbaren", "opening_hours": "Mo 21:00-01:00, Tu-We 16:00-01:00, Th 16:00-02:00, Fr 15:00-02:00, Sa 13:00-02:00, Su 13:00-23:00", "phone": "+45 35354534", "ref:DK:cvr": "26748097", "smoking": "no", "website": "http://oelbaren.dk/"}}, {"type": "node", "id": 24971137, "lat": 55.6902172, "lon": 12.5639074, "tags": {"amenity": "restaurant", "cuisine": "regional", "fvst:navnelbnr": "114128", "microbrewery": "yes", "name": "N\u00f8rrebro Bryghus Restaurant", "opening_hours": "Mo-Th 12:00-15:00,17:30-22:00; Fr-Sa 12:00-15:00,17:30-23:00", "phone": "+45 35300530", "website": "https://noerrebrobryghus.dk/", "wheelchair": "yes", "wheelchair:description": "Adgang via elevator gennem port. Ingen armst\u00f8tte ved toilet", "wikidata": "Q7071526", "wikipedia": "da:N\u00f8rrebro Bryghus"}}, {"type": "node", "id": 25440922, "lat": 55.6834082, "lon": 12.5651843, "tags": {"amenity": "pub", "fvst:navnelbnr": "789565", "name": "Banker\u00e5t", "opening_hours": "Mo-Fr 09:30-24:00;Sa-Su 10:30-24:00", "opening_hours:url": "https://www.facebook.com/bankeraat/info", "phone": "+45 33 93 69 88", "smoking": "no", "website": "http://www.bankeraat.dk", "wheelchair": "no"}}, {"type": "node", "id": 25869217, "lat": 55.6864894, "lon": 12.5874331, "tags": {"amenity": "bar", "fvst:navnelbnr": "501959", "name": "Black Swan", "note": "Beer bar, 14 taps.", "opening_hours": "Mo-We 15:00-01:00, Th-Sa 15:00-02:00, Su 15:00-23:00", "smoking": "outside", "toilets:wheelchair": "no", "website": "http://www.blackswanbar.dk/", "wheelchair": "no"}}, {"type": "node", "id": 25904721, "lat": 55.6996104, "lon": 12.5467101, "tags": {"amenity": "pub", "fvst:navnelbnr": "109922", "name": "Caf\u00e9 Viking", "opening_hours": "Mo-Sa 09:00-02:00, Su 09:00-20:00", "phone": "+45 35831493", "website": "http://www.cafeviking.dk", "wheelchair": "limited"}}, {"type": "node", "id": 26053041, "lat": 55.6736632, "lon": 12.5921433, "tags": {"amenity": "pub", "fvst:navnelbnr": "113481", "name": "Caf\u00e9 St\u00e6rkodder", "wheelchair": "limited", "wikidata": "Q21710338"}}, {"type": "node", "id": 32524971, "lat": 55.6781934, "lon": 12.5763979, "tags": {"name": "Royal", "shop": "bakery"}}, {"type": "node", "id": 115167440, "lat": 55.6501334, "lon": 12.6119742, "tags": {"amenity": "restaurant", "cuisine": "regional", "fvst:navnelbnr": "114043", "name": "Ingolfs Kaffebar", "opening_hours": "Mo-Tu 10:00-22:00; We-Sa 10:00-24:00; Su 10:00-21:00", "phone": "+45 32599596", "website": "http://www.ingolfskaffebar.dk/"}}, {"type": "node", "id": 116080427, "lat": 55.6844609, "lon": 12.5594799, "tags": {"amenity": "restaurant", "cuisine": "thai", "fvst:name": "Thaipan anno 2017", "fvst:navnelbnr": "713340", "name": "Thai Pan", "opening_hours": "16:30-22:00", "phone": "+45 35360505", "takeaway": "yes", "website": "http://www.thaipan.dk/"}}, {"type": "node", "id": 137534794, "lat": 55.6742501, "lon": 12.5730625, "tags": {"amenity": "restaurant", "cuisine": "steak", "fvst:navnelbnr": "112944", "name": "Rio Bravo", "opening_hours": "Mo-Sa 11:30-05:00,Su 17:00-05:00", "phone": "+45 33117587", "website": "https://www.riobravo.dk/"}}, {"type": "node", "id": 267023248, "lat": 55.6418645, "lon": 12.5203492}, {"type": "node", "id": 267023249, "lat": 55.6418843, "lon": 12.5206449}, {"type": "node", "id": 267023250, "lat": 55.6419364, "lon": 12.5206339}, {"type": "node", "id": 267023251, "lat": 55.6419165, "lon": 12.5203382}, {"type": "node", "id": 269264421, "lat": 55.6697106, "lon": 12.5547131, "tags": {"amenity": "restaurant", "cuisine": "japanese", "fvst:navnelbnr": "114786", "name": "Sticks'n'Sushi", "opening_hours": "Fr-Sa 10:00-24:00; Su-Th 10:00-23:00", "phone": "+45 33237304", "website": "http://www.sushi.dk/restauranter/vesterbro.html"}}, {"type": "node", "id": 272860527, "lat": 55.655972, "lon": 12.4854155, "tags": {"branch": "Valby Vigerslevvej", "brand": "Netto", "brand:wikidata": "Q552652", "brand:wikipedia": "da:Netto (supermarkedsk\u00e6de)", "fvst:navnelbnr": "113169", "name": "Netto", "opening_hours": "Mo-Su 08:00-22:00", "payment:cash": "yes", "payment:credit_cards": "yes", "ref:DK:cvr": "35954716", "ref:DK:cvr:pnummer": "1003016842", "shop": "supermarket"}}, {"type": "node", "id": 272860703, "lat": 55.6432347, "lon": 12.501348, "tags": {"branch": "Valby Gammel K\u00f8ge Landevej", "brand": "Netto", "brand:wikidata": "Q552652", "brand:wikipedia": "da:Netto (supermarkedsk\u00e6de)", "fvst:navnelbnr": "113983", "name": "Netto", "opening_hours": "Mo-Su 08:00-22:00", "ref:DK:cvr": "35954716", "ref:DK:cvr:pnummer": "1003017916", "shop": "supermarket"}}, {"type": "node", "id": 276532883, "lat": 55.6269023, "lon": 12.4827425}, {"type": "node", "id": 276532884, "lat": 55.6263728, "lon": 12.4830123}, {"type": "node", "id": 276532885, "lat": 55.6263374, "lon": 12.4833223}, {"type": "node", "id": 276532886, "lat": 55.6263194, "lon": 12.4846781}, {"type": "node", "id": 276532887, "lat": 55.6264243, "lon": 12.4846812}, {"type": "node", "id": 276532889, "lat": 55.6264286, "lon": 12.4847433}, {"type": "node", "id": 276532890, "lat": 55.6268735, "lon": 12.4847829}, {"type": "node", "id": 276532891, "lat": 55.626871, "lon": 12.4850347}, {"type": "node", "id": 276532893, "lat": 55.6273737, "lon": 12.4849257}, {"type": "node", "id": 276532894, "lat": 55.6276397, "lon": 12.4847827}, {"type": "node", "id": 276532895, "lat": 55.6276415, "lon": 12.4846356}, {"type": "node", "id": 276532896, "lat": 55.6274239, "lon": 12.4840086}, {"type": "node", "id": 276532897, "lat": 55.6272919, "lon": 12.4836275}, {"type": "node", "id": 276532898, "lat": 55.6270824, "lon": 12.4830581}, {"type": "node", "id": 276532899, "lat": 55.6268946, "lon": 12.4830473}, {"type": "node", "id": 277055017, "lat": 55.6820867, "lon": 12.5310109}, {"type": "node", "id": 277055018, "lat": 55.6812577, "lon": 12.5310281}, {"type": "node", "id": 277055019, "lat": 55.6812824, "lon": 12.533922}, {"type": "node", "id": 277055020, "lat": 55.6816456, "lon": 12.5342186}, {"type": "node", "id": 277055021, "lat": 55.6822091, "lon": 12.5318984}, {"type": "node", "id": 277055022, "lat": 55.6821346, "lon": 12.5318955}, {"type": "node", "id": 277364372, "lat": 55.6817592, "lon": 12.5343154, "tags": {"amenity": "cafe", "fvst:navnelbnr": "112685", "name": "Caf\u00e9 Moccador", "phone": "+45 3819 4238", "website": "http://www.cafemoccador.com/", "wheelchair": "no"}}, {"type": "node", "id": 277366674, "lat": 55.680294, "lon": 12.4550455}, {"type": "node", "id": 277366677, "lat": 55.6793763, "lon": 12.4549614}, {"type": "node", "id": 277366678, "lat": 55.6782345, "lon": 12.4592617}, {"type": "node", "id": 277366679, "lat": 55.6796195, "lon": 12.4591455}, {"type": "node", "id": 277366680, "lat": 55.6797452, "lon": 12.4579751}, {"type": "node", "id": 277366681, "lat": 55.6800319, "lon": 12.4567936}, {"type": "node", "id": 277634329, "lat": 55.6631338, "lon": 12.5625155}, {"type": "node", "id": 277634334, "lat": 55.6614492, "lon": 12.5618262}, {"type": "node", "id": 277634338, "lat": 55.6608239, "lon": 12.5610569}, {"type": "node", "id": 277634339, "lat": 55.6611103, "lon": 12.5606538}, {"type": "node", "id": 277634340, "lat": 55.6609958, "lon": 12.5603974}, {"type": "node", "id": 277634342, "lat": 55.6613549, "lon": 12.5598891}, {"type": "node", "id": 277634343, "lat": 55.6612419, "lon": 12.5596394}, {"type": "node", "id": 277634345, "lat": 55.6614902, "lon": 12.5593064}, {"type": "node", "id": 277634347, "lat": 55.6615134, "lon": 12.5590431}, {"type": "node", "id": 277634351, "lat": 55.6627088, "lon": 12.5615697}, {"type": "node", "id": 277634352, "lat": 55.6626689, "lon": 12.561667}, {"type": "node", "id": 277634353, "lat": 55.6626375, "lon": 12.561871}, {"type": "node", "id": 277634354, "lat": 55.6626417, "lon": 12.5619715, "tags": {"bicycle": "no", "entrance": "yes", "foot": "yes", "ref": "A", "vehicle": "no", "wheelchair": "yes"}}, {"type": "node", "id": 277634355, "lat": 55.6626592, "lon": 12.5620725}, {"type": "node", "id": 277634356, "lat": 55.6626906, "lon": 12.5621669}, {"type": "node", "id": 277634357, "lat": 55.66273, "lon": 12.5622404}, {"type": "node", "id": 277634358, "lat": 55.6628305, "lon": 12.5623332}, {"type": "node", "id": 277634359, "lat": 55.662897, "lon": 12.5623488}, {"type": "node", "id": 277634360, "lat": 55.6629511, "lon": 12.562339}, {"type": "node", "id": 277634361, "lat": 55.6630355, "lon": 12.5622789}, {"type": "node", "id": 277635956, "lat": 55.663324, "lon": 12.603271}, {"type": "node", "id": 277635957, "lat": 55.6630857, "lon": 12.6034293}, {"type": "node", "id": 277635958, "lat": 55.6622896, "lon": 12.6044109}, {"type": "node", "id": 277635959, "lat": 55.6629386, "lon": 12.6060652}, {"type": "node", "id": 277635960, "lat": 55.6638653, "lon": 12.6049655}, {"type": "node", "id": 277681329, "lat": 55.7710986, "lon": 12.50483}, {"type": "node", "id": 277681330, "lat": 55.7708889, "lon": 12.5050869}, {"type": "node", "id": 277681331, "lat": 55.772096, "lon": 12.5081676}, {"type": "node", "id": 277681332, "lat": 55.7725015, "lon": 12.5076739}, {"type": "node", "id": 277681333, "lat": 55.772759, "lon": 12.5055029}, {"type": "node", "id": 277681334, "lat": 55.772219, "lon": 12.5043107}, {"type": "node", "id": 277681336, "lat": 55.7717106, "lon": 12.5049471}, {"type": "node", "id": 277681337, "lat": 55.7715876, "lon": 12.5046627}, {"type": "node", "id": 277681338, "lat": 55.7714647, "lon": 12.5048049}, {"type": "node", "id": 277681339, "lat": 55.7714224, "lon": 12.5047057}, {"type": "node", "id": 277681340, "lat": 55.7711752, "lon": 12.5050024}, {"type": "node", "id": 277694702, "lat": 55.6770916, "lon": 12.532119, "tags": {"amenity": "pub", "fvst:navnelbnr": "115321", "name": "Cafe Intime", "opening_hours": "Mo-Su 16:00 - 02:00", "phone": "+45 38 34 19 58", "toilets": "yes", "website": "http://www.cafeintime.dk/", "wikidata": "Q12305023", "wikipedia": "da:Cafe Intime"}}, {"type": "node", "id": 277703258, "lat": 55.6752681, "lon": 12.5328906, "tags": {"alt_name": "Psykopaten", "amenity": "pub", "fvst:navnelbnr": "111210", "name": "All\u00e9enberg", "opening_hours": "Tu-Sa 22:00-05:00", "outdoor_seating": "yes", "payment:credit_cards": "yes", "phone": "+45 33254442", "toilets": "yes", "website": "http://www.alleenberg.dk/", "wheelchair": "no"}}, {"type": "node", "id": 278115558, "lat": 55.6293407, "lon": 12.578905}, {"type": "node", "id": 278115559, "lat": 55.6310257, "lon": 12.5795544}, {"type": "node", "id": 278115560, "lat": 55.631142, "lon": 12.5790738}, {"type": "node", "id": 278115561, "lat": 55.6312292, "lon": 12.5785245}, {"type": "node", "id": 278115562, "lat": 55.6312679, "lon": 12.5778979}, {"type": "node", "id": 278115563, "lat": 55.6312873, "lon": 12.5772112}, {"type": "node", "id": 278115564, "lat": 55.6312582, "lon": 12.5765933}, {"type": "node", "id": 278115565, "lat": 55.6311826, "lon": 12.5759142}, {"type": "node", "id": 278115566, "lat": 55.6311161, "lon": 12.5758981}, {"type": "node", "id": 278115567, "lat": 55.6298726, "lon": 12.5755982}, {"type": "node", "id": 278115568, "lat": 55.6296449, "lon": 12.5784191}, {"type": "node", "id": 278115569, "lat": 55.6293848, "lon": 12.5783433}, {"type": "node", "id": 278143557, "lat": 55.7019451, "lon": 12.5376393}, {"type": "node", "id": 278143558, "lat": 55.7019171, "lon": 12.5379961}, {"type": "node", "id": 278143560, "lat": 55.7021571, "lon": 12.53806}, {"type": "node", "id": 278143561, "lat": 55.7030731, "lon": 12.5384801}, {"type": "node", "id": 278143562, "lat": 55.7043921, "lon": 12.5392717}, {"type": "node", "id": 278143563, "lat": 55.7046088, "lon": 12.5393363}, {"type": "node", "id": 278143564, "lat": 55.7046554, "lon": 12.5388093}, {"type": "node", "id": 278143565, "lat": 55.7044773, "lon": 12.5385937}, {"type": "node", "id": 278143566, "lat": 55.7044951, "lon": 12.5383314}, {"type": "node", "id": 278143567, "lat": 55.7039639, "lon": 12.5381669}, {"type": "node", "id": 278143568, "lat": 55.7025572, "lon": 12.5377491}, {"type": "node", "id": 278143569, "lat": 55.7026032, "lon": 12.5379478}, {"type": "node", "id": 278143570, "lat": 55.7023748, "lon": 12.5378909}, {"type": "node", "id": 278143571, "lat": 55.7023804, "lon": 12.5377434}, {"type": "node", "id": 278380921, "lat": 55.6789275, "lon": 12.5274752, "tags": {"amenity": "pub", "fvst:navnelbnr": "921122", "name": "Cafe Svejk", "opening_hours": "Su-Mo 12:00-24:00;Tu-Sa 12:00-02:00", "phone": "+45 38862560", "wheelchair": "yes"}}, {"type": "node", "id": 278389273, "lat": 55.6742295, "lon": 12.5399431, "tags": {"amenity": "pub", "fvst:navnelbnr": "738934", "name": "Promenaden", "wheelchair": "no"}}, {"type": "node", "id": 279090567, "lat": 55.6527218, "lon": 12.4738724}, {"type": "node", "id": 279090568, "lat": 55.6528491, "lon": 12.4746743}, {"type": "node", "id": 279090569, "lat": 55.6535442, "lon": 12.4743277}, {"type": "node", "id": 279090570, "lat": 55.6535145, "lon": 12.4741404}, {"type": "node", "id": 279090571, "lat": 55.6535445, "lon": 12.4738489}, {"type": "node", "id": 279090572, "lat": 55.6536592, "lon": 12.4737503}, {"type": "node", "id": 279090573, "lat": 55.6535384, "lon": 12.4738106}, {"type": "node", "id": 279090574, "lat": 55.6534169, "lon": 12.4735257}, {"type": "node", "id": 279090676, "lat": 55.6639304, "lon": 12.4742137}, {"type": "node", "id": 279090677, "lat": 55.6638868, "lon": 12.4754273}, {"type": "node", "id": 279090678, "lat": 55.6638239, "lon": 12.4754202}, {"type": "node", "id": 279090679, "lat": 55.6638155, "lon": 12.4756552}, {"type": "node", "id": 279090680, "lat": 55.6638784, "lon": 12.4756623}, {"type": "node", "id": 279090681, "lat": 55.6638168, "lon": 12.4772477}, {"type": "node", "id": 279090682, "lat": 55.6631919, "lon": 12.477176}, {"type": "node", "id": 279090685, "lat": 55.6632502, "lon": 12.4755829}, {"type": "node", "id": 279090686, "lat": 55.6633047, "lon": 12.4755891}, {"type": "node", "id": 279090687, "lat": 55.6633216, "lon": 12.4751165}, {"type": "node", "id": 279090688, "lat": 55.6635889, "lon": 12.4747974}, {"type": "node", "id": 279090876, "lat": 55.663172, "lon": 12.4575696}, {"type": "node", "id": 279090877, "lat": 55.6631545, "lon": 12.4587372}, {"type": "node", "id": 279090878, "lat": 55.66403, "lon": 12.4587784}, {"type": "node", "id": 279090879, "lat": 55.6640475, "lon": 12.4576109}, {"type": "node", "id": 279143638, "lat": 55.6856353, "lon": 12.5376527, "tags": {"amenity": "restaurant", "cuisine": "north_vietnamese", "fvst:navnelbnr": "115050", "name": "Viet Nam Nam", "opening_hours": "16:00-23:00", "website": "http://www.viet-namnam.dk/", "wheelchair": "no"}}, {"type": "node", "id": 279143817, "lat": 55.6836628, "lon": 12.5245604, "tags": {"amenity": "pub", "fvst:navnelbnr": "111869", "name": "Bartof Caf\u00e9", "outdoor_seating": "yes", "phone": "+45 38 86 90 67", "smoking": "no", "website": "http://bartofcafe.dk", "wheelchair": "no"}}, {"type": "node", "id": 279143826, "lat": 55.6740704, "lon": 12.5496175, "tags": {"amenity": "cafe", "cuisine": "regional", "fvst:navnelbnr": "115360", "name": "Caf\u00e9 Viggo", "opening_hours": "Mo-We 10:00-24:00, Th 10:00-01:00, Fr 10:00-02:00, Sa 11:00-02:00", "opening_hours:kitchen": "17:30-22:00", "phone": "+45 33311821", "website": "http://cafeviggo.com/", "wheelchair": "no"}}, {"type": "node", "id": 279144098, "lat": 55.6855209, "lon": 12.5382279, "tags": {"amenity": "pub", "fvst:navnelbnr": "112209", "name": "London Pub", "wheelchair": "no"}}, {"type": "node", "id": 279183613, "lat": 55.7052359, "lon": 12.581411, "tags": {"amenity": "cafe", "cost:coffee": "EUR3.1", "fvst:navnelbnr": "113751", "name": "Cafe Bopa", "note": "Kithcen opening hours", "opening_hours": "Mo-Su 09:00-22:00", "outdoor_seating": "yes", "phone": "+45 35430566", "smoking": "outside", "website": "http://www.cafebopa.dk/", "wheelchair": "limited"}}, {"type": "node", "id": 279183730, "lat": 55.7050615, "lon": 12.5767802, "tags": {"amenity": "cafe", "fvst:navnelbnr": "114666", "name": "Kafe Kapers", "opening_hours": "Su-Th 09:00-24:00; Fr-Sa 09:00-01:00", "phone": "+45 35251120", "website": "https://www.kafekapers.dk/", "wheelchair": "yes"}}, {"type": "node", "id": 279199290, "lat": 55.6722759, "lon": 12.5690757, "tags": {"amenity": "restaurant", "brand": "Wagamama", "brand:wikidata": "Q503715", "brand:wikipedia": "en:Wagamama", "cuisine": "asian", "diet:vegan": "yes", "diet:vegetarian": "yes", "fvst:navnelbnr": "115075", "name": "Wagamama", "opening_hours": "Su-Th 12:00-21:00; Fr-Sa 12:00-22:00", "phone": "+45 33750658", "takeaway": "yes", "website": "https://www.wagamama.dk/restauranter/tivoli", "wheelchair": "yes"}}, {"type": "node", "id": 279329711, "lat": 55.7079624, "lon": 12.5145154}, {"type": "node", "id": 279444811, "lat": 55.7419673, "lon": 12.4950112}, {"type": "node", "id": 279471447, "lat": 55.6786502, "lon": 12.5793688, "tags": {"amenity": "cafe", "fvst:name": "Europa 1989", "fvst:navnelbnr": "905212", "name": "Europa 1989", "opening_hours": "Mo-Th 07:45-23:00; Fr-Sa 07:45-24:00; Su 09:00-22:00", "outdoor_seating": "yes", "website": "https://europa1989.dk/", "wheelchair": "limited"}}, {"type": "node", "id": 279471489, "lat": 55.6788788, "lon": 12.5799142, "tags": {"amenity": "cafe", "facebook": "https://www.facebook.com/pages/Cafe-Norden/169933519709349", "fvst:navnelbnr": "113833", "name": "Caf\u00e9 Norden", "outdoor_seating": "yes", "phone": "+45 33 11 77 91", "website": "https://www.cafenorden.dk/", "wheelchair": "limited"}}, {"type": "node", "id": 279471686, "lat": 55.6786451, "lon": 12.5789419, "tags": {"amenity": "pub", "fvst:navnelbnr": "114286", "name": "The Dubliner Copenhagen", "payment:bitcoin": "yes", "wheelchair": "limited"}}, {"type": "node", "id": 279471887, "lat": 55.6779054, "lon": 12.5771435, "tags": {"amenity": "cafe", "fvst:navnelbnr": "660958", "name": "Zirup", "opening_hours": "Su-Th 10:00-23:00; Fr-Sa 10:00-24:00", "outdoor_seating": "yes", "phone": "+45 33 13 50 60", "website": "https://zirup.dk/", "wheelchair": "limited"}}, {"type": "node", "id": 279471969, "lat": 55.6780274, "lon": 12.5780857, "tags": {"amenity": "cafe", "cuisine": "regional", "fvst:navnelbnr": "111204", "name": "Kafe Kys", "opening_hours": "Mo-Th 09:15-24:00, Fr-Sa 09:15-02:00, Su 10:15-23:00", "phone": "+45 33938594", "website": "http://www.kafekys.dk/", "wheelchair": "limited"}}, {"type": "node", "id": 279472058, "lat": 55.6779618, "lon": 12.5777989, "tags": {"amenity": "cafe", "cuisine": "steak", "fvst:navnelbnr": "115066", "name": "Hoppe's", "opening_hours": "Su-We 09:00-00:00, Th 09:00-02:00, Fr-Sa 09:00-04:00", "outdoor_seating": "yes", "phone": "+45 33935353", "website": "https://www.cafehoppes.dk/", "wheelchair": "limited", "wikidata": "Q97754608"}}, {"type": "node", "id": 279472070, "lat": 55.6777283, "lon": 12.5765653, "tags": {"amenity": "cafe", "fvst:navnelbnr": "553194", "name": "Wanna B", "opening_hours": "Su-We 09:00-24:00; Th-Sa 09:00-02:00", "phone": "+45 33133311", "website": "https://www.cafewannab.dk/", "wheelchair": "limited"}}, {"type": "node", "id": 279472179, "lat": 55.6770792, "lon": 12.5751847, "tags": {"amenity": "restaurant", "cuisine": "steak", "diet:vegan": "yes", "diet:vegetarian": "yes", "fvst:name": "Riz Raz Restaurant", "fvst:navnelbnr": "113908", "name": "Riz Raz Sticks'N'Veggies Kompagnistr\u00e6de", "opening_hours": "11:30-24:00; Dec 24-26 off; Jan 01 off", "phone": "+45 33150575", "wheelchair": "limited"}}, {"type": "node", "id": 279472194, "lat": 55.6763998, "lon": 12.5733293, "tags": {"amenity": "pub", "facebook": "https://www.facebook.com/dropinnmusic/", "fvst:navnelbnr": "795821", "name": "Drop Inn", "outdoor_seating": "yes", "phone": "+45 33112404", "toilets": "yes", "website": "https://drop-inn.dk/", "wheelchair": "limited"}}, {"type": "node", "id": 279472282, "lat": 55.6765807, "lon": 12.5718891, "tags": {"amenity": "restaurant", "cuisine": "italian", "fvst:navnelbnr": "535182", "name": "Il Ponte", "opening_hours": "16:00-23:00", "phone": "+45 33136463", "website": "http://www.ilponteitaliano.dk/"}}, {"type": "node", "id": 279472358, "lat": 55.6797762, "lon": 12.5754143, "tags": {"amenity": "restaurant", "fvst:navnelbnr": "113033", "name": "Wining & Dining", "opening_hours": "17:30-24:00", "opening_hours:kitchen": "17:30-22:30", "operator": "Le Pave", "phone": "+45 33129686", "website": "http://www.wininganddining.dk/"}}, {"type": "node", "id": 279472397, "lat": 55.6802012, "lon": 12.5750978, "tags": {"amenity": "cafe", "fvst:navnelbnr": "118841", "internet_access": "wlan", "internet_access:fee": "customers", "name": "Flottenheimer", "opening_hours": "Mo-Sa 10:00-22:00; Su 10:00-21:00", "phone": "+45 35383212", "smoking": "no", "website": "http://www.cafeflottenheimer.dk/"}}, {"type": "node", "id": 279472775, "lat": 55.679433, "lon": 12.575349, "tags": {"amenity": "restaurant", "cuisine": "italian", "fvst:name": "Restaurationsselskabet Gr\u00e5br\u00f8dre Torv 21 ApS", "fvst:navnelbnr": "902693", "name": "Ristorante Amalfi", "opening_hours": "11:00-24:00", "outdoor_seating": "yes", "phone": "+45 33114707", "website": "http://www.restaurantamalfi.dk/"}}, {"type": "node", "id": 279472884, "lat": 55.6796537, "lon": 12.5759776, "tags": {"amenity": "restaurant", "cuisine": "regional", "fvst:navnelbnr": "113720", "name": "Peder Oxe", "opening_hours": "Su-We 10:00-23:30; Th-Sa 10:00-24:00", "phone": "+45 33110077", "website": "https://www.pederoxe.dk/"}}, {"type": "node", "id": 279472912, "lat": 55.6795485, "lon": 12.575953, "tags": {"amenity": "restaurant", "cuisine": "regional", "fvst:navnelbnr": "113721", "name": "B\u00f8f & Ost", "opening_hours": "10:00-22:30", "phone": "+45 33119911", "website": "https://boef-ost.dk/"}}, {"type": "node", "id": 279473881, "lat": 55.6807127, "lon": 12.5832761, "tags": {"amenity": "restaurant", "fvst:navnelbnr": "114779", "name": "Cafe Victor", "opening_hours": "Mo-Th 11:30-16:00,18:00-22:00; Fr-Sa 11:30-16:00,18:00-23:00; Su 11:30-16:00,18:00-22:30", "opening_hours:cafe": "Mo-We 08:00-01:00, Th-Fr 08:00-02:00, Sa 09:00-02:00, Su 11:00-24:00", "phone": "+45 3313 3613", "website": "http://cafevictor.dk/en/", "wheelchair": "limited"}}, {"type": "node", "id": 279474368, "lat": 55.6803781, "lon": 12.5804521, "tags": {"amenity": "restaurant", "fvst:navnelbnr": "119420", "name": "Madklubben Grill", "opening_hours": "Mo-Sa 17:00-24:00", "opening_hours:kitchen": "Mo-Sa 17:00-22:00", "phone": "+45 33133334", "smoking": "no", "website": "https://madklubben.dk/grill-koebenhavn/", "wheelchair": "limited"}}, {"type": "node", "id": 279474458, "lat": 55.6809107, "lon": 12.5824969, "tags": {"amenity": "restaurant", "cuisine": "italian", "fvst:name": "LAVECCHIA SIGNORA GIULIA APS", "fvst:navnelbnr": "112385", "name": "La Vecchia Signora", "opening_hours": "12:00-23:00", "outdoor_seating": "yes", "phone": "+45 33160048", "smoking": "no", "website": "http://www.la-vecchia-signora.dk/", "wheelchair": "no"}}, {"type": "node", "id": 279474704, "lat": 55.6807191, "lon": 12.5828713, "tags": {"amenity": "restaurant", "cuisine": "french", "fvst:navnelbnr": "119706", "name": "L'Alsace", "opening_hours": "Mo-Sa 11:30-24:00, PH off", "outdoor_seating": "yes", "phone": "+45 33145743", "smoking": "no", "website": "https://www.alsace.dk/", "wheelchair": "no"}}, {"type": "node", "id": 279475627, "lat": 55.6790105, "lon": 12.5805759, "tags": {"amenity": "restaurant", "fvst:name": "Mama Rosa / Americas Grill", "fvst:navnelbnr": "115449", "name": "Mama Rosa", "opening_hours": "09:00-24:00", "phone": "+45 33938082", "takeaway": "yes", "website": "http://www.mamarosa.com/", "wheelchair": "limited"}}, {"type": "node", "id": 279475693, "lat": 55.679714, "lon": 12.5830136, "tags": {"amenity": "pub", "karaoke": "yes", "name": "Sam's Bar", "website": "https://www.sams-bar.dk/"}}, {"type": "node", "id": 279567019, "lat": 55.680855, "lon": 12.5727238, "tags": {"amenity": "cafe", "fvst:navnelbnr": "116510", "name": "Dalle Valle", "opening_hours": "Mo-Sa 10:00-24:00;Su 10:00-23:00", "opening_hours:kitchen": "Mo-Sa 10:00-23:00\u200b; Su 10:00-22:00", "outdoor_seating": "yes", "smoking": "no", "website": "http://www.cafedallevalle.dk/fiolstraede-kbh.aspx", "wheelchair": "yes"}}, {"type": "node", "id": 279690426, "lat": 55.6782361, "lon": 12.5668224, "tags": {"amenity": "pub", "facebook": "https://www.facebook.com/pubogsport/", "fvst:navnelbnr": "112682", "name": "Pub & Sport", "opening_hours": "mo-th 16:00-01:00; fr 15:00-03:00; sa 13:00-03:00; su 14:00-23:00", "phone": "+45 33150810", "website": "http://www.pubogsport.dk", "wheelchair": "limited"}}, {"type": "node", "id": 279694584, "lat": 55.6908139, "lon": 12.5601406, "tags": {"amenity": "cafe", "cuisine": "french", "fvst:navnelbnr": "558581", "name": "Sebastopol", "opening_hours": "Mo-Th 08:00-24:00, Fr 08:00-01:00, Sa 09:00-01:00, Su 09:00-22:00", "opening_hours:kitchen": "Mo-Th 08:00-22:00; Fr 08:00-23:00; Sa 09:00-23:00; Su 09:00-21:00", "outdoor_seating": "yes", "phone": "+45 35363002", "website": "http://www.sebastopol.dk/", "wheelchair": "no"}}, {"type": "node", "id": 279697161, "lat": 55.7047957, "lon": 12.5619073}, {"type": "node", "id": 279901270, "lat": 55.6786581, "lon": 12.5325728, "tags": {"amenity": "bar", "fvst:navnelbnr": "719930", "name": "The Old Irish Pub", "payment:credit_cards": "yes", "phone": "+45 5189 7713", "toilets": "yes", "website": "https://oldirishpub.dk/", "wheelchair": "yes"}}, {"type": "node", "id": 279997012, "lat": 55.7075811, "lon": 12.5932439}, {"type": "node", "id": 279997013, "lat": 55.7076192, "lon": 12.5936686}, {"type": "node", "id": 279997014, "lat": 55.7084467, "lon": 12.5938633}, {"type": "node", "id": 279997015, "lat": 55.7084014, "lon": 12.5934212}, {"type": "node", "id": 280034116, "lat": 55.6794091, "lon": 12.5259137, "tags": {"amenity": "cafe", "fvst:navnelbnr": "115162", "name": "Sokkelund", "wheelchair": "no"}}, {"type": "node", "id": 280104065, "lat": 55.7362606, "lon": 12.5746411, "tags": {"amenity": "restaurant", "fvst:navnelbnr": "95936", "name": "Sticks'n'Sushi", "opening_hours": "10:00-23:00", "website": "http://www.sushi.dk/restauranter/hellerup.html"}}, {"type": "node", "id": 280104186, "lat": 55.7367003, "lon": 12.5748815, "tags": {"amenity": "restaurant", "cuisine": "japanese", "fvst:navnelbnr": "93948", "name": "Sticks'n'Sushi", "opening_hours": "10:00-23:00", "outdoor_seating": "yes", "phone": "+45 39401540", "website": "http://www.sushi.dk/restauranter/hellerup.html"}}, {"type": "node", "id": 280465638, "lat": 55.6763037, "lon": 12.5644933, "tags": {"amenity": "restaurant", "cuisine": "steak", "fvst:navnelbnr": "112950", "name": "Jensen's B\u00f8fhus Axeltorv", "opening_hours": "Mo-Th 11:00-22:30; Fr-Sa 09:00-24:00; Su 09:00-22:30; 11:00-22:30; Fr-Sa 11:00-24:00", "phone": "+45 70304050", "website": "https://www.jensens.com/restaurant/koebenhavn-axeltorv/", "wheelchair": "no"}}, {"type": "node", "id": 280466297, "lat": 55.6778757, "lon": 12.5695321, "tags": {"amenity": "restaurant", "cuisine": "galette", "fvst:navnelbnr": "111223", "name": "La Galette", "opening_hours": "Mo-Sa 12:00-16:00,17:30-22:00; Su 13:00-22:00", "phone": "+45 33323790", "smoking": "no", "website": "http://www.lagalette.dk/", "wheelchair": "yes"}}, {"type": "node", "id": 280466425, "lat": 55.678228, "lon": 12.569743, "tags": {"amenity": "restaurant", "cuisine": "french", "fvst:navnelbnr": "115940", "name": "L'education Nationale", "opening_hours": "11:30-24:00", "opening_hours:kitchen": "11:30-22:00; Su 11:30-21:00", "phone": "+45 33915360", "smoking": "no", "website": "https://www.leducation.dk/", "wheelchair": "no"}}, {"type": "node", "id": 280466677, "lat": 55.6781715, "lon": 12.5680739, "tags": {"amenity": "restaurant", "cuisine": "balcan", "fvst:navnelbnr": "117884", "name": "Dubrovnik", "opening_hours": "17:00-24:00", "opening_hours:kitchen": "17:00-23:00", "phone": "+45 33130564", "takeaway": "yes", "website": "http://restaurant-dubrovnik.dk/"}}, {"type": "node", "id": 280530603, "lat": 55.671961, "lon": 12.5555508, "tags": {"amenity": "pub", "fvst:navnelbnr": "114082", "name": "Buddha Bar", "wheelchair": "limited"}}, {"type": "node", "id": 280530612, "lat": 55.671781, "lon": 12.5548963, "tags": {"amenity": "pub", "fvst:name": "Caf\u00e9 BarBar Bar", "fvst:navnelbnr": "672161", "name": "Barbar Bar", "wheelchair": "no"}}, {"type": "node", "id": 280530808, "lat": 55.676738, "lon": 12.5674414, "tags": {"amenity": "restaurant", "cuisine": "italian", "fvst:name": "Vesuvio", "fvst:navnelbnr": "113880", "name": "Vesuvio of Copenhagen", "opening_hours": "Mo-Th 13:00-00:00; Fr-Sa 13:00-01:00", "phone": "+45 33153315", "website": "http://www.vesuvio.dk/"}}, {"type": "node", "id": 280530930, "lat": 55.6733149, "lon": 12.5616617, "tags": {"amenity": "restaurant", "cuisine": "steak", "fvst:navnelbnr": "112055", "name": "Jensen's B\u00f8fhus", "opening_hours": "08:00-24:00", "phone": "+45 63134516", "website": "https://www.jensens.com/restaurant/koebenhavn-vesterbrogade/", "wheelchair": "yes"}}, {"type": "node", "id": 280679726, "lat": 55.666871, "lon": 12.597726, "tags": {"amenity": "restaurant", "branch": "2", "cuisine": "indian", "diet:vegetarian": "yes", "fvst:name": "Deep 2 Indisk Restaurant", "fvst:navnelbnr": "737716", "name": "Deep", "opening_hours": "15:00-23:00", "phone": "+45 35393838", "survey:date": "2020-04-30", "website": "http://www.deeprestaurant.dk/"}}, {"type": "node", "id": 280679787, "lat": 55.6681601, "lon": 12.5971417, "tags": {"amenity": "restaurant", "cuisine": "italian", "fvst:fixme": "fvst position missing, fixed from overpassturbo/osak", "fvst:navnelbnr": "959492", "name": "Rimini", "opening_hours": "Mo-Su 12:00-24:00", "phone": "+4532572819", "website": "http://rimini.dk/"}}, {"type": "node", "id": 280679974, "lat": 55.6777413, "lon": 12.5785538, "tags": {"amenity": "bar", "cuisine": "seafood", "fvst:navnelbnr": "573483", "name": "Krog's Fiskerestaurant", "opening_hours": "\"lunch and dinner\"", "phone": "+45 33158915", "website": "http://krogs.dk/", "wikidata": "Q21936680"}}, {"type": "node", "id": 280790034, "lat": 55.6811269, "lon": 12.5741096, "tags": {"amenity": "restaurant", "cuisine": "turkish", "fvst:navnelbnr": "668474", "name": "Ankara", "opening_hours": "11:00-24:00; Su,PH 13:00-24:00", "phone": "+45 33151915", "website": "https://ankaracity.dk/"}}, {"type": "node", "id": 280790084, "lat": 55.677942, "lon": 12.5768752, "tags": {"amenity": "pub", "fvst:navnelbnr": "114203", "name": "Lord Nelson", "name:es": "Lord Nelson Bar", "opening_hours": "Mo 15:30-00:00; Tu-We 15:30-02:00; Th 15:30-03:00; Fr 15:00-05:00; Sa 14:00-05:00", "phone": "+45 33 93 93 94", "website": "http://www.lordnelson.dk"}}, {"type": "node", "id": 280790085, "lat": 55.6793725, "lon": 12.5752015, "tags": {"amenity": "restaurant", "cuisine": "international", "fvst:navnelbnr": "112668", "name": "Eros", "opening_hours": "Tu-Fr,Su 16:00-23:00; Sa 13:00-23:00", "phone": "+45 33134076", "website": "https://www.erosrestaurantdk.com/"}}, {"type": "node", "id": 280790326, "lat": 55.6793029, "lon": 12.5743687, "tags": {"amenity": "restaurant", "cuisine": "greek", "fvst:navnelbnr": "718045", "name": "Samos", "opening_hours": "11:30-23:00", "phone": "+45 33330025", "website": "http://www.samosrestaurant.dk/"}}, {"type": "node", "id": 280790327, "lat": 55.6791314, "lon": 12.573758, "tags": {"amenity": "restaurant", "cuisine": "international", "fvst:navnelbnr": "112270", "name": "Nova", "opening_hours": "11:00-24:00", "outdoor_seating": "yes", "phone": "+45 33111249", "website": "http://restaurantnova.com/"}}, {"type": "node", "id": 280790408, "lat": 55.6787069, "lon": 12.5727364, "tags": {"amenity": "restaurant", "cuisine": "indian", "fvst:name": "Shahi Indisk Restaurant", "fvst:navnelbnr": "117674", "name": "Shahi", "opening_hours": "mo-th 16:00-24:00; fr-sa 12:00-24:00; su 17:00-24:00", "phone": "+45 33126272", "website": "http://www.shahirestaurant.dk"}}, {"type": "node", "id": 280790473, "lat": 55.6786922, "lon": 12.5732662, "tags": {"amenity": "pub", "fvst:navnelbnr": "117090", "name": "Charlie Scotts", "toilets": "yes"}}, {"type": "node", "id": 280809193, "lat": 55.6691735, "lon": 12.5802893, "tags": {"amenity": "pub", "fvst:navnelbnr": "721054", "name": "Cafe Langebro", "opening_hours": "Mo-Th 11:00-02:00, Fr-Sa 11:00-03:00, Su 11:00-20:00", "phone": "+45 32 95 85 91", "website": "http://cafelangebro.dk"}}, {"type": "node", "id": 280843173, "lat": 55.7258711, "lon": 12.5780192}, {"type": "node", "id": 280843175, "lat": 55.7262204, "lon": 12.5803107}, {"type": "node", "id": 280843176, "lat": 55.725379, "lon": 12.5782557}, {"type": "node", "id": 280843177, "lat": 55.7257283, "lon": 12.5805472}, {"type": "node", "id": 280955740, "lat": 55.7089635, "lon": 12.5754032, "tags": {"amenity": "restaurant", "fvst:navnelbnr": "113277", "name": "Hong Cheng", "opening_hours": "13:00-23:00", "phone": "+45 39291758", "website": "https://hongcheng.dk/", "wheelchair": "limited"}}, {"type": "node", "id": 280957608, "lat": 55.6885488, "lon": 12.525126, "tags": {"amenity": "cafe", "cuisine": "danish", "fvst:navnelbnr": "115332", "name": "Hadis Cafe", "opening_hours": "Mo-Sa 11:00-23:00; Su,PH 11:00-21:00", "phone": "+45 38888044", "website": "http://hadiscafe.dk/"}}, {"type": "node", "id": 281002969, "lat": 55.690498, "lon": 12.5441844, "tags": {"amenity": "restaurant", "cuisine": "turkish", "fvst:name": "Safir House", "fvst:navnelbnr": "734564", "name": "Safir Kebab", "opening_hours": "Mo-Fr 11:00-24:00; Sa-Su 12:00-24:00", "phone": "+45 35343470", "source": "survey", "wheelchair": "limited"}}, {"type": "node", "id": 281062886, "lat": 55.681009, "lon": 12.5806605, "tags": {"amenity": "pub", "fvst:navnelbnr": "555264", "name": "Zoo Bar", "opening_hours": "Th-Sa 20:00-05:00", "website": "https://www.zoocopenhagen.dk/", "wheelchair": "limited"}}, {"type": "node", "id": 281063017, "lat": 55.6806132, "lon": 12.5802876, "tags": {"amenity": "pub", "fvst:name": "Cafe CharlieS", "fvst:navnelbnr": "111222", "name": "Charlie's Bar", "ref:DK:cvr": "25091930", "smoking": "no", "wheelchair": "no"}}, {"type": "node", "id": 281063870, "lat": 55.6809684, "lon": 12.5878215, "tags": {"amenity": "restaurant", "fvst:navnelbnr": "111793", "name": "Els", "opening_hours": "12:00-22:30", "outdoor_seating": "yes", "phone": "+45 33141341", "reservation": "yes", "smoking": "no", "toilets": "yes", "website": "http://www.restaurant-els.dk/", "wheelchair": "limited"}}, {"type": "node", "id": 281063912, "lat": 55.6809061, "lon": 12.5883161, "tags": {"amenity": "restaurant", "cuisine": "danish", "dinner": "yes", "fvst:navnelbnr": "912492", "lunch": "yes", "name": "Zeleste", "opening_hours": "Mo-Th 10:30-23:00; Fr 10:30-23:30; Sa 10:00-23:30; Su 10:00-23:00", "opening_hours:kitchen": "Mo-Th 11:30-22:00; Fr 11:30-22:30; Sa 10:30-22:30; Su 10:30-22:00", "outdoor_seating": "yes", "payment:credit_cards": "yes", "phone": "+45 33160606", "smoking": "no", "toilets": "yes", "website": "https://zeleste.dk/", "wheelchair": "no"}}, {"type": "node", "id": 281063934, "lat": 55.680579, "lon": 12.588872, "tags": {"amenity": "bar", "fvst:navnelbnr": "112601", "name": "Klods Hans", "phone": "+45 33339091", "wheelchair": "limited"}}, {"type": "node", "id": 281064392, "lat": 55.6792833, "lon": 12.5738811, "tags": {"amenity": "restaurant", "capacity": "220", "cuisine": "italian_pizza", "fvst:name": "RISTORANTE ITALIANO AF 6 MARTS 1998 APS", "fvst:navnelbnr": "112060", "name": "Italiano", "opening_hours": "11:00-24:00", "outdoor_seating": "yes", "phone": "+45 33111295", "website": "http://www.italiano.dk/"}}, {"type": "node", "id": 281253328, "lat": 55.6780529, "lon": 12.5803408, "tags": {"amenity": "restaurant", "cuisine": "asian", "fvst:navnelbnr": "500158", "name": "Wok On", "opening_hours": "Mo-Th 11:00-21:00; Fr-Sa 11:00-22:00; Su,PH 12:00-21:00", "phone": "+45 33323213", "website": "http://hojbroplads.wokon.dk/", "wheelchair": "no"}}, {"type": "node", "id": 281253382, "lat": 55.6826871, "lon": 12.5745415, "tags": {"amenity": "restaurant", "cuisine": "sm\u00f8rrebr\u00f8d", "fvst:navnelbnr": "715374", "name": "Restaurant Jacobsen", "opening_hours": "11:00-24:00; Dec 24-25 off; Jan 01 off", "opening_hours:kitchen": "11:00-22:00; Dec 24-Dec 25 off; Jan 1 off", "phone": "+45 33147099", "website": "http://restaurant-jacobsen.dk/", "wheelchair": "yes"}}, {"type": "node", "id": 281253627, "lat": 55.6774884, "lon": 12.5775062, "tags": {"amenity": "cafe", "fvst:navnelbnr": "112373", "name": "Diamanten"}}, {"type": "node", "id": 281253914, "lat": 55.6759653, "lon": 12.5751782, "tags": {"amenity": "cafe", "cuisine": "burger;pasta", "facebook": "https://www.facebook.com/cafekatz/", "fvst:navnelbnr": "558191", "internet_access": "wlan", "name": "Cafe Katz", "opening_hours": "su-th 10:00-24:00; fr-sa 10:00 - 02:00", "outdoor_seating": "yes", "payment:credit_cards": "yes", "phone": "+45 33933387", "smoking": "yes", "toilets": "yes", "website": "http://www.katz.dk/", "wheelchair": "yes", "wikidata": "Q26912693"}}, {"type": "node", "id": 281254516, "lat": 55.6772838, "lon": 12.5769463, "tags": {"amenity": "restaurant", "award:michelin": "bib_gourmand", "contact:instagram": "https://www.instagram.com/marvogben/", "cuisine": "scandinavian", "dinner": "yes", "email": "reservation@marvogben.dk", "facebook": "https://www.facebook.com/marvben/", "fvst:navnelbnr": "788694", "name": "Marv & Ben", "opening_hours": "Tu-Sa 18:00-24:00", "opening_hours:kitchen": "Tu-Sa 18:00-22:00", "payment:credit_cards": "yes", "phone": "+4533910191", "reservation": "yes", "toilets": "yes", "website": "https://www.marvogben.dk"}}, {"type": "node", "id": 281254700, "lat": 55.6734181, "lon": 12.5553705, "tags": {"amenity": "restaurant", "cuisine": "french", "fvst:navnelbnr": "523670", "name": "Chez Bruno", "opening_hours": "Tu-Sa 17:00-23:00", "website": "http://www.chez-bruno.com/", "wheelchair": "no"}}, {"type": "node", "id": 281255286, "lat": 55.6719584, "lon": 12.5547149, "tags": {"amenity": "cafe", "facebook": "https://www.facebook.com/pages/Cafe-Obelix/2174154752607862", "fvst:navnelbnr": "116798", "name": "Cafe Obelix", "outdoor_seating": "yes", "phone": "+4533313414", "website": "http://www.cafeobelix.dk/", "wheelchair": "no"}}, {"type": "node", "id": 281255578, "lat": 55.6719106, "lon": 12.5562393, "tags": {"amenity": "restaurant", "fvst:name": "Restaurant LB", "fvst:navnelbnr": "770910", "name": "Le Basilic", "opening_hours": "Tu-Sa 17:30-22:30; Fr-Sa 12:00-15:00, 17:30-22:30", "phone": "+45 33318305", "url": "https://www.le-basilic.dk/", "wheelchair": "no"}}, {"type": "node", "id": 281256703, "lat": 55.6707876, "lon": 12.5610473, "tags": {"amenity": "restaurant", "fvst:navnelbnr": "565569", "name": "Apropos", "opening_hours": "Su-Th 09:00-24:00; Fr-Sa 09:00-01:00", "phone": "+45 33231221", "website": "http://cafeapropos.dk/"}}, {"type": "node", "id": 281256948, "lat": 55.6690839, "lon": 12.5573535, "tags": {"amenity": "restaurant", "cuisine": "thai", "fvst:navnelbnr": "111936", "name": "Ban Gaw", "opening_hours": "12:00-24:00", "phone": "+45 33228438", "website": "https://bangaw.dk"}}, {"type": "node", "id": 281256994, "lat": 55.6692654, "lon": 12.5577022, "tags": {"alt_name": "Pornsak", "amenity": "restaurant", "cuisine": "thai", "facebook": "https://www.facebook.com/pages/Pornsak/133595053366699", "fvst:navnelbnr": "112176", "name": "Porn-Sak", "opening_hours": "12:00-22:00", "phone": "+45 33313999", "website": "http://www.pornsak.dk/"}}, {"type": "node", "id": 281539304, "lat": 55.6770342, "lon": 12.5703318, "tags": {"amenity": "restaurant", "cuisine": "chinese_buffet", "fvst:navnelbnr": "111278", "name": "Beijing", "opening_hours": "11:00-22:00", "phone": "+45 33111205", "website": "http://www.restaurantbeijing.dk/"}}, {"type": "node", "id": 281539863, "lat": 55.6759526, "lon": 12.567219, "tags": {"amenity": "pub", "fvst:navnelbnr": "115440", "name": "The Scottish Pub", "wheelchair": "yes"}}, {"type": "node", "id": 281540159, "lat": 55.6757244, "lon": 12.5669495, "tags": {"amenity": "pub", "cuisine": "mexican;burger", "fvst:name": "ROSIE MCGEE K/S", "fvst:navnelbnr": "115215", "name": "Rosie McGee's", "phone": "+45 70333111", "wheelchair": "no"}}, {"type": "node", "id": 281541027, "lat": 55.6733045, "lon": 12.5596734, "tags": {"amenity": "restaurant", "fvst:navnelbnr": "118046", "name": "Flora's Steakhouse", "opening_hours": "Su-Th 11:30-22:00; Fr-Sa 11:30-22:30", "phone": "+45 33230902", "website": "https://www.floras.dk/", "wheelchair": "no"}}, {"type": "node", "id": 281541738, "lat": 55.6732568, "lon": 12.5452292, "tags": {"amenity": "restaurant", "cuisine": "mexican", "facebook": "https://www.facebook.com/pages/La-Fiesta-Mexicana/132926343435134", "fvst:navnelbnr": "118114", "name": "La Fiesta Mexicana", "opening_hours": "17:00-01:00", "outdoor_seating": "yes", "payment:credit_cards": "yes", "phone": "+45 33217750", "takeaway": "yes", "toilets": "yes", "website": "https://www.lafiestamexicana.dk/", "wheelchair": "no"}}, {"type": "node", "id": 281542271, "lat": 55.675662, "lon": 12.533086, "tags": {"amenity": "cafe", "cuisine": "regional;lebanese", "dinner": "yes", "fvst:name": "Caf\u00e9 Phenix", "fvst:navnelbnr": "118301", "internet_access": "wlan", "internet_access:fee": "no", "lunch": "yes", "name": "Cafe Ph\u00e9nix", "opening_hours": "09:00-22:00", "outdoor_seating": "yes", "phone": "+45 33223642", "reservation": "yes", "takeaway": "yes", "toilets": "yes", "website": "http://www.cafephenix.dk/frederiksberg.html", "wheelchair": "yes"}}, {"type": "node", "id": 281542418, "lat": 55.680632, "lon": 12.5337297, "tags": {"amenity": "restaurant", "cuisine": "italian", "fvst:navnelbnr": "115923", "name": "La Vecchia Gastronomia Italiana", "opening_hours": "12:00-23:00", "phone": "+45 38119333", "takeaway": "yes", "website": "http://www.lavecchia.dk/", "wheelchair": "no"}}, {"type": "node", "id": 281544325, "lat": 55.6843632, "lon": 12.5515978, "tags": {"amenity": "restaurant", "cuisine": "greek", "fvst:navnelbnr": "112075", "name": "Akropolis", "opening_hours": "Mo,Th,Sa 16:00-01:00, Sa-Su 16:00-05:00", "website": "http://www.restaurant-akropolis.dk/"}}, {"type": "node", "id": 281544394, "lat": 55.6841005, "lon": 12.5514227, "tags": {"amenity": "restaurant", "cuisine": "sushi", "fvst:name": "SAKURA", "fvst:navnelbnr": "117073", "name": "Nyu Sakura", "opening_hours": "12:00-22:00", "phone": "+45 3536 5757", "takeaway": "yes", "website": "https://www.nyu-sakura.dk/"}}, {"type": "node", "id": 281568948, "lat": 55.6273722, "lon": 12.4850509}, {"type": "node", "id": 281569512, "lat": 55.6268313, "lon": 12.483717, "tags": {"branch": "Frihedens Butikscenter", "fvst:navnelbnr": "94620", "name": "F\u00f8tex", "ref:DK:cvr": "35954716", "ref:DK:cvr:pnummer": "1009141290", "shop": "supermarket", "wheelchair": "yes"}}, {"type": "node", "id": 281766718, "lat": 55.6697141, "lon": 12.5453535, "tags": {"amenity": "cafe", "fvst:fixme": "fvst position missing, fixed from overpassturbo/osak", "fvst:name": "Caf\u00e9 H\u00f8egs CPH APS", "fvst:navnelbnr": "957969", "name": "H\u00f8eg's", "phone": "+45 33313489"}}, {"type": "node", "id": 281787039, "lat": 55.6819882, "lon": 12.5543323, "tags": {"amenity": "restaurant", "cuisine": "danish", "fvst:navnelbnr": "130223", "name": "Radio", "opening_hours": "Tu-Sa 17:30-24:00; Fr-Sa 12:00-15:00,17:30-24:00", "phone": "+45 25102733", "website": "https://restaurantradio.dk/"}}, {"type": "node", "id": 281787178, "lat": 55.6762048, "lon": 12.5659854, "tags": {"amenity": "restaurant", "cuisine": "tapas", "fvst:name": "Tapas Huset Casa lola", "fvst:navnelbnr": "957767", "name": "Tapashuset", "opening_hours": "12:00-24:00", "phone": "+45 3332 4477", "website": "http://www.tapashuset.com/"}}, {"type": "node", "id": 281787344, "lat": 55.6793628, "lon": 12.5685853, "tags": {"amenity": "cafe", "fvst:navnelbnr": "114658", "name": "Sabine's Cafeteria", "opening_hours": "Mo-Th 15:00-01:00, Fr-Sa 15:00-02:00", "phone": "+45 33140944"}}, {"type": "node", "id": 281787637, "lat": 55.6771072, "lon": 12.5694984, "tags": {"amenity": "pub", "fvst:name": "Brew Pub K\u00f8benhavn, Bryggeri", "fvst:navnelbnr": "116483", "microbrewery": "yes", "name": "Brew Pub", "smoking": "no", "website": "https://brewpub.dk"}}, {"type": "node", "id": 281788003, "lat": 55.67721, "lon": 12.5736687, "tags": {"amenity": "restaurant", "fvst:navnelbnr": "114838", "name": "Nytorv", "note": "opening hours for kitchen", "opening_hours": "08:00-22:00; Dec 24 off; Dec 31 08:00-16:30", "phone": "+45 33117706"}}, {"type": "node", "id": 281998525, "lat": 55.686443, "lon": 12.5580523, "tags": {"amenity": "cafe", "fvst:navnelbnr": "556579", "internet_access": "wlan", "name": "Bl\u00e5g\u00e5rds Apotek", "opening_hours": "Mo-Th 14:00-02:00, Fr-Su 12:00-02:00", "website": "http://kroteket.dk/"}}, {"type": "node", "id": 281998976, "lat": 55.6873787, "lon": 12.5595118, "tags": {"amenity": "restaurant", "cuisine": "persian", "fvst:name": "Spiserestauranten Zafaran", "fvst:navnelbnr": "113842", "name": "Zafran", "opening_hours": "17:00-22:00", "phone": "+45 35349095", "website": "http://www.zafran.dk/"}}, {"type": "node", "id": 281999239, "lat": 55.683693, "lon": 12.5709974, "tags": {"amenity": "cafe", "brand": "Starbucks", "brand:wikidata": "Q37158", "brand:wikipedia": "en:Starbucks", "cuisine": "coffee_shop", "fvst:name": "Starbucks 1915 Frederiksborggade", "fvst:navnelbnr": "563516", "name": "Starbucks Frederiksborggade", "official_name": "Starbucks Coffee", "source": "survey", "takeaway": "yes", "wheelchair": "yes"}}, {"type": "node", "id": 282168841, "lat": 55.6391975, "lon": 12.4795111, "tags": {"amenity": "cafe", "cuisine": "regional", "fvst:name": "Cafe Victoria Hvidovre", "fvst:navnelbnr": "92009", "name": "Cafe Victoria", "opening_hours": "Su-We 10:00-23:00; Th 10:00-24:00; Fr-Sa 10:00-01:00", "phone": "+45 36772850", "website": "http://cafevictoria.dk/"}}, {"type": "node", "id": 282168983, "lat": 55.6535762, "lon": 12.4748464, "tags": {"amenity": "cafe", "fvst:navnelbnr": "915874", "name": "Cafe Claudio"}}, {"type": "node", "id": 282244629, "lat": 55.7708922, "lon": 12.50268, "tags": {"amenity": "cafe", "fvst:navnelbnr": "97150", "name": "Cafe Amalie", "wikidata": "Q27981116"}}, {"type": "node", "id": 282272223, "lat": 55.6820201, "lon": 12.5941964, "tags": {"amenity": "restaurant", "fvst:name": "Salt Bar Admiral Hotel", "fvst:navnelbnr": "943853", "name": "Salt", "opening_hours": "12:00-16:00,17:00-22:30", "phone": "+45 33741444", "website": "https://www.saltrestaurant.dk/", "wheelchair": "yes"}}, {"type": "node", "id": 282352477, "lat": 55.6368454, "lon": 12.4793644, "tags": {"branch": "Hvidovrevej", "brand": "Aldi", "brand:wikidata": "Q125054", "brand:wikipedia": "en:Aldi", "fvst:navnelbnr": "92865", "name": "Aldi", "ref:DK:cvr": "59260715", "shop": "supermarket"}}, {"type": "node", "id": 282352760, "lat": 55.6370882, "lon": 12.4792169}, {"type": "node", "id": 282356021, "lat": 55.6280994, "lon": 12.4813981, "tags": {"branch": "Friheden", "brand": "Netto", "brand:wikidata": "Q552652", "brand:wikipedia": "da:Netto (supermarkedsk\u00e6de)", "fvst:navnelbnr": "91367", "name": "Netto", "ref:DK:cvr": "35954716", "shop": "supermarket"}}, {"type": "node", "id": 282680168, "lat": 55.6479992, "lon": 12.526752, "tags": {"branch": "K\u00f8benhavn SV", "fvst:navnelbnr": "113629", "name": "SuperBrugsen", "opening_hours": "Mo-Su 09:00-21:00", "ref:DK:cvr": "26259495", "ref:DK:cvr:pnummer": "1003078842", "shop": "supermarket"}}, {"type": "node", "id": 282699526, "lat": 55.6466429, "lon": 12.5301017, "tags": {"amenity": "cafe", "fvst:name": "Karens Minde Kulturhusforening Cafe Karen", "fvst:navnelbnr": "113887", "name": "Cafe Karen", "opening_hours": "13:00-19:30; Fr 13:00-16:00; Sa-Su off", "operator": "Kulturhusforening Karens Minde", "website": "https://karensmindekulturhus.kk.dk/"}}, {"type": "node", "id": 282821179, "lat": 55.666523, "lon": 12.5150828, "tags": {"amenity": "restaurant", "cuisine": "pizza", "fvst:navnelbnr": "794604", "name": "Avanti", "opening_hours": "Mo-Th 13:00-21:00; Fr 13:00-22:00; Sa 11:00-22:00; Su 11:00-20:00", "phone": "+45 36453690", "website": "https://www.avanti-valby.dk/"}}, {"type": "node", "id": 282821186, "lat": 55.6665053, "lon": 12.5148218, "tags": {"amenity": "cafe", "fvst:navnelbnr": "111948", "name": "Cafe Cir\u00e9"}}, {"type": "node", "id": 282821200, "lat": 55.6664428, "lon": 12.5145524, "tags": {"amenity": "restaurant", "fvst:navnelbnr": "112258", "name": "Hotel Fy & Bi", "opening_hours": "11:30-16:00+ \"lunch to 16:00, dinner later\"", "phone": "+45 36454400", "website": "http://www.hotelfyogbi.dk/"}}, {"type": "node", "id": 283040256, "lat": 55.6484839, "lon": 12.5346597, "tags": {"name": "Fakta", "shop": "supermarket"}}, {"type": "node", "id": 283069598, "lat": 55.7227063, "lon": 12.4398257, "tags": {"amenity": "cafe", "cuisine": "international", "fvst:navnelbnr": "760494", "name": "Cafe Risico", "phone": "+45 44840508", "website": "http://www.caferisico.dk/"}}, {"type": "node", "id": 283071658, "lat": 55.7303183, "lon": 12.4967737}, {"type": "node", "id": 283071659, "lat": 55.7295653, "lon": 12.4965138}, {"type": "node", "id": 283071660, "lat": 55.7293829, "lon": 12.4981794}, {"type": "node", "id": 283071661, "lat": 55.7301359, "lon": 12.4984394}, {"type": "node", "id": 283193400, "lat": 55.6847119, "lon": 12.5667539, "tags": {"amenity": "cafe", "diet:vegan": "yes", "diet:vegetarian": "yes", "fvst:navnelbnr": "116621", "name": "Kalaset", "opening_hours": "Su 10:00-23:00; Mo-Th 10:00-24:00; Fr-Sa 10:00-02:00", "phone": "+45 33330035", "website": "http://kalaset.dk/", "wheelchair": "no"}}, {"type": "node", "id": 283194050, "lat": 55.6844442, "lon": 12.5660522, "tags": {"amenity": "restaurant", "cuisine": "tapas", "diet:vegan": "yes", "diet:vegetarian": "yes", "fvst:navnelbnr": "112736", "name": "Pintxos", "opening_hours": "17:00-23:00; Dec 23 off; Jan 1 off", "phone": "+45 33936655", "website": "https://pintxos.dk/", "wheelchair": "no"}}, {"type": "node", "id": 283205289, "lat": 55.6914483, "lon": 12.5395657, "tags": {"alt_name": "Fatamorgana", "amenity": "cafe", "contact:email": "cafe.fatamorgana@gmail.com", "fvst:navnelbnr": "119476", "name": "Fata'Morgana", "phone": "+45 38100705", "price": "DKK 100 burger", "website": "http://cafe-fatamorgana.dk/"}}, {"type": "node", "id": 283581117, "lat": 55.6747822, "lon": 12.5786288, "tags": {"alt_name:es": "Museo_del_Teatro", "amenity": "cafe", "fvst:navnelbnr": "110662", "name": "Teatermuseet", "tourism": "museum", "website": "http://www.teatermuseet.dk/", "wikidata": "Q3072878"}}, {"type": "node", "id": 284480077, "lat": 55.6724767, "lon": 12.5553973, "tags": {"alt_name": "Irma City", "branch": "Vesterbro Torv", "fvst:navnelbnr": "113864", "name": "Lille Irma", "opening_hours": "Mo-Su 08:00-22:00", "operator": "Irma", "ref:DK:cvr": "26259495", "ref:DK:cvr:pnummer": "1008792255", "shop": "supermarket", "wheelchair": "yes"}}, {"type": "node", "id": 284480821, "lat": 55.6727937, "lon": 12.5509072, "tags": {"branch": "Vesterbrogade", "brand": "F\u00f8tex", "brand:wikidata": "Q1480395", "brand:wikipedia": "en:F\u00f8tex", "fvst:navnelbnr": "111209", "name": "F\u00f8tex", "ref:DK:cvr": "35954716", "ref:DK:cvr:pnummer": "1003224497", "shop": "supermarket", "wheelchair": "yes"}}, {"type": "node", "id": 285513620, "lat": 55.6465954, "lon": 12.4955257, "tags": {"created_by": "Potlatch 0.10b", "name": "Jackpot", "shop": "convenience"}}, {"type": "node", "id": 286095505, "lat": 55.6763307, "lon": 12.5644427, "tags": {"amenity": "cafe", "fvst:navnelbnr": "112407", "name": "Cafe Rene"}}, {"type": "node", "id": 286392414, "lat": 55.7360678, "lon": 12.5738669, "tags": {"amenity": "restaurant", "cuisine": "italian", "fvst:navnelbnr": "92961", "name": "Altopalato", "opening_hours": "Mo-Sa 17:30-22:00", "phone": "+45 39619405", "website": "https://www.altopalato.dk/", "wheelchair": "no"}}, {"type": "node", "id": 286402100, "lat": 55.6966034, "lon": 12.5807892, "tags": {"amenity": "restaurant", "cuisine": "vietnamese", "fvst:navnelbnr": "117051", "name": "Hanoi", "opening_hours": "16:00-23:00", "opening_hours:kitchen": "16:00-22:30", "phone": "+45 35 42 63 50", "source": "website", "website": "http://www.restauranthanoi.dk/", "wheelchair": "limited"}}, {"type": "node", "id": 286402481, "lat": 55.7034223, "lon": 12.5779306, "tags": {"amenity": "restaurant", "cuisine": "french", "fvst:navnelbnr": "111963", "name": "Le Saint Jacques", "opening_hours": "12:00-15:00,18:00-22:00; Sa 12:00-16:00,18:00-22:00; Su 12:00-15:00,17:00-22:00", "smoking": "no", "website": "http://lesaintjacques.dk/", "wheelchair": "limited"}}, {"type": "node", "id": 286470159, "lat": 55.6840886, "lon": 12.4860445, "tags": {"amenity": "restaurant", "cuisine": "mexican", "fvst:navnelbnr": "126315", "name": "Que Pasa", "opening_hours": "We-Su 17:00-21:00", "phone": "+45 38743001", "website": "https://www.quepasa.dk/"}}, {"type": "node", "id": 286508329, "lat": 55.6482365, "lon": 12.5274664, "tags": {"branch": "Mozartsvej", "fvst:navnelbnr": "115677", "name": "Irma", "opening_hours": "Mo-Su 09:00-21:00", "ref:DK:cvr": "26259495", "ref:DK:cvr:pnummer": "1003073669", "shop": "supermarket"}}, {"type": "node", "id": 286513862, "lat": 55.6509842, "lon": 12.5365105, "tags": {"branch": "Sydhavn", "fvst:navnelbnr": "113510", "name": "fakta", "ref:DK:cvr": "11517498", "shop": "supermarket"}}, {"type": "node", "id": 286529734, "lat": 55.6818262, "lon": 12.5712029, "tags": {"amenity": "restaurant", "cuisine": "sushi", "fvst:name": "Sushi Restaurant", "fvst:navnelbnr": "111621", "name": "Sushi N\u00f8rregade", "opening_hours": "Su-We 16:00-22:00; Th-Sa 16:00-23:00", "phone": "+45 33127070", "website": "https://www.sushinorregade.dk/"}}, {"type": "node", "id": 286529910, "lat": 55.6841991, "lon": 12.5647608, "tags": {"amenity": "restaurant", "cuisine": "sushi", "fvst:navnelbnr": "125338", "name": "Sticks'N'Sushi", "opening_hours": "Fr-Sa 10:00-23:00; Su-Th 10:00-22:30", "phone": "+45 33111407"}}, {"type": "node", "id": 286530909, "lat": 55.6843897, "lon": 12.5673006, "tags": {"amenity": "restaurant", "cuisine": "indian", "diet:vegan": "yes", "diet:vegetarian": "yes", "fvst:navnelbnr": "918150", "happycow:id": "81514", "name": "Cafe Munk", "opening_hours": "Mo-Sa 11:00-23:00; Su 11:00-17:00", "wheelchair": "no"}}, {"type": "node", "id": 286532706, "lat": 55.6829182, "lon": 12.5854059, "tags": {"amenity": "restaurant", "cuisine": "bornholm", "dinner": "yes", "fvst:name": "Restaurant Koefoed", "fvst:navnelbnr": "119750", "lunch": "yes", "name": "Restaurant Koefoed", "note": "Opening hours are for the kitchen", "opening_hours": "12:00-15:00,17:30-21:30", "outdoor_seating": "yes", "payment:credit_cards": "yes", "phone": "+45 56482224", "reservation": "yes", "smoking": "no", "toilets": "yes", "website": "http://www.restaurant-koefoed.dk/", "wikidata": "Q97768054"}}, {"type": "node", "id": 286533157, "lat": 55.6823201, "lon": 12.5841755, "tags": {"amenity": "restaurant", "cuisine": "italian", "email": "info@cantinacph.dk", "fvst:navnelbnr": "653328", "name": "Cantina", "opening_hours": "Su-We 11:00-23:00; Th 11:00-01:00; Fr-Sa 11:00-02:00", "phone": "+45 88169995", "website": "http://cantinacph.dk/"}}, {"type": "node", "id": 286546419, "lat": 55.6516698, "lon": 12.476269, "tags": {"created_by": "Potlatch 0.10b", "shop": "convenience"}}, {"type": "node", "id": 286658653, "lat": 55.6975544, "lon": 12.4181436}, {"type": "node", "id": 286658654, "lat": 55.6975114, "lon": 12.4196863}, {"type": "node", "id": 286658655, "lat": 55.6961915, "lon": 12.4196002}, {"type": "node", "id": 286658656, "lat": 55.6962206, "lon": 12.4185567}, {"type": "node", "id": 286658657, "lat": 55.6963292, "lon": 12.4185662}, {"type": "node", "id": 286658658, "lat": 55.6962333, "lon": 12.4181005}, {"type": "node", "id": 287381693, "lat": 55.694626, "lon": 12.548037, "tags": {"branch": "N\u00f8rrebros Runddel", "brand": "Kvickly", "brand:wikidata": "Q7061148", "brand:wikipedia": "en:Kvickly", "fvst:navnelbnr": "113084", "name": "Kvickly", "opening_hours": "Mo-Su 07:00-22:00", "ref:DK:cvr": "26259495", "ref:DK:cvr:pnummer": "1003078325", "shop": "supermarket", "wheelchair": "yes"}}, {"type": "node", "id": 287954706, "lat": 55.6759943, "lon": 12.5329286, "tags": {"amenity": "restaurant", "cuisine": "danish", "dinner": "yes", "fvst:navnelbnr": "114963", "lunch": "yes", "name": "Allegade 10", "opening_hours": "10:00-22:00", "outdoor_seating": "yes", "payment:credit_cards": "yes", "phone": "+45 33311751", "reservation": "yes", "toilets": "yes", "website": "http://www.allegade10.dk/", "wheelchair": "yes"}}, {"type": "node", "id": 288360635, "lat": 55.6470314, "lon": 12.5412048, "tags": {"name": "Circle K", "opening_hours": "PH,Mo-Su 00:00-24:00", "shop": "convenience"}}, {"type": "node", "id": 288506205, "lat": 55.7696872, "lon": 12.504318, "tags": {"amenity": "cafe", "fvst:navnelbnr": "94611", "name": "Mig og Annie", "wikidata": "Q56244998"}}, {"type": "node", "id": 288658689, "lat": 55.6658202, "lon": 12.5114188, "tags": {"amenity": "cafe", "fvst:navnelbnr": "119175", "name": "Sommerfuglen"}}, {"type": "node", "id": 288658698, "lat": 55.6661009, "lon": 12.5124513, "tags": {"amenity": "cafe", "fvst:navnelbnr": "114905", "name": "Cafe Phenix", "website": "http://www.cafephenix.dk/"}}, {"type": "node", "id": 288720039, "lat": 55.7603801, "lon": 12.4562335, "tags": {"alt_name": "Bagsv\u00e6rd Pizzaria", "amenity": "cafe", "cuisine": "pizza", "fvst:name": "Cafe Sisko / Bagsv\u00e6rd Pizzaria", "fvst:navnelbnr": "528352", "name": "Sisko", "opening_hours": "11:00-22:00", "phone": "+45 44449886", "takeaway": "yes", "website": "http://sisko.dk/"}}, {"type": "node", "id": 288806413, "lat": 55.6919588, "lon": 12.4838727, "tags": {"amenity": "restaurant", "cuisine": "greek", "fvst:navnelbnr": "114072", "name": "Kreta III", "opening_hours": "16:00-22:00", "phone": "+45 38790301", "website": "http://kretavanlose.dk/"}}, {"type": "node", "id": 289733464, "lat": 55.7391583, "lon": 12.5222472, "tags": {"name": "Munke Konditoriet", "shop": "bakery"}}, {"type": "node", "id": 289785863, "lat": 55.6931331, "lon": 12.5071737, "tags": {"amenity": "restaurant", "capacity": "30", "cuisine": "thai", "fvst:navnelbnr": "511438", "name": "Chaophraya", "opening_hours": "Mo-We 14:00-22:00;Th-Su 12:00 - 22:00", "phone": "+45 38103475", "smoking": "outside", "source": "chaophraya.dk", "takeaway": "yes", "website": "http://chaophraya.dk", "wheelchair": "limited"}}, {"type": "node", "id": 290327037, "lat": 55.6658044, "lon": 12.513765, "tags": {"amenity": "restaurant", "cuisine": "sushi", "fvst:navnelbnr": "119322", "name": "Sticks'N'Sushi", "opening_hours": "Su-Th 10:00-22:00; Fr-Sa 10:00-23:00", "phone": "+45 36171836", "website": "http://www.sushi.dk/restauranter/valby.html"}}, {"type": "node", "id": 290439035, "lat": 55.682998, "lon": 12.571948, "tags": {"branch": "N\u00f8rreport", "brand": "Irma", "brand:wikidata": "Q797150", "brand:wikipedia": "en:Irma (supermarket)", "fvst:navnelbnr": "114244", "name": "Irma", "opening_hours": "Mo-Su 09:00-21:00", "ref:DK:cvr": "26259495", "ref:DK:cvr:pnummer": "1003073840", "shop": "supermarket", "wheelchair": "yes"}}, {"type": "node", "id": 290439211, "lat": 55.68107, "lon": 12.572657, "tags": {"branch": "Fiolstr\u00e6de", "brand": "Netto", "brand:wikidata": "Q552652", "brand:wikipedia": "da:Netto (supermarkedsk\u00e6de)", "fvst:navnelbnr": "562055", "name": "Netto", "name:fa": "\u0646\u062a\u0648", "opening_hours": "08:00-22:00", "ref:DK:cvr": "35954716", "ref:DK:cvr:pnummer": "1003624320", "shop": "supermarket"}}, {"type": "node", "id": 290662914, "lat": 55.6787589, "lon": 12.5028005, "tags": {"branch": "Peter Bangs Vej", "brand": "Netto", "brand:wikidata": "Q552652", "brand:wikipedia": "da:Netto (supermarkedsk\u00e6de)", "fvst:navnelbnr": "113761", "name": "Netto", "ref:DK:cvr": "35954716", "shop": "supermarket"}}, {"type": "node", "id": 290663362, "lat": 55.681402, "lon": 12.5190172, "tags": {"fvst:navnelbnr": "112903", "name": "SuperBrugsen", "opening_hours": "Mo-Fr 08:00-21:00", "ref:DK:cvr": "26259495", "ref:DK:cvr:pnummer": "1008431740", "shop": "supermarket", "website": "https://www.superbrugsen.dk/"}}, {"type": "node", "id": 290663559, "lat": 55.6855924, "lon": 12.5392733, "tags": {"branch": "Falkoner Alle", "brand": "Kvickly", "brand:wikidata": "Q7061148", "brand:wikipedia": "en:Kvickly", "fvst:navnelbnr": "115433", "name": "Kvickly", "opening_hours": "Mo-Su 07:00-21:00", "ref:DK:cvr": "26259495", "ref:DK:cvr:pnummer": "1003079278", "shop": "supermarket", "wheelchair": "yes"}}, {"type": "node", "id": 290663607, "lat": 55.6933237, "lon": 12.5322352, "tags": {"branch": "Ndr. Fasanvej", "fvst:navnelbnr": "114242", "name": "Irma", "opening_hours": "08:00-21:00", "phone": "+45 38197360", "ref:DK:cvr": "26259495", "ref:DK:cvr:pnummer": "1003073670", "shop": "supermarket", "website": "https://irma.dk/butikker?id=23034"}}, {"type": "node", "id": 290664056, "lat": 55.6941316, "lon": 12.5318403, "tags": {"branch": "Borups Alle", "fvst:navnelbnr": "113844", "name": "Meny", "opening_hours": "Mo-Su 08:00-21:00", "ref:DK:cvr": "30920961", "ref:DK:cvr:pnummer": "1013713428", "shop": "supermarket"}}, {"type": "node", "id": 290664171, "lat": 55.6967107, "lon": 12.5375902, "tags": {"brand": "Netto", "brand:wikidata": "Q552652", "brand:wikipedia": "da:Netto (supermarkedsk\u00e6de)", "fvst:navnelbnr": "114572", "name": "Netto", "name:fa": "\u0646\u062a\u0648", "opening_hours": "Mo-Su 06:00-00:00", "payment:cash": "yes", "payment:credit_cards": "yes", "shop": "supermarket"}}, {"type": "node", "id": 290664295, "lat": 55.7012667, "lon": 12.538426, "tags": {"branch": "N\u00f8rrebro", "fvst:navnelbnr": "112493", "name": "F\u00f8tex", "opening_hours": "Mo-Su 07:00-22:00", "ref:DK:cvr": "35954716", "ref:DK:cvr:pnummer": "1003224357", "shop": "supermarket", "wheelchair": "yes"}}, {"type": "node", "id": 291568140, "lat": 55.7042888, "lon": 12.4996169, "tags": {"branch": "Br\u00f8nsh\u00f8j", "fvst:navnelbnr": "115434", "name": "SuperBrugsen", "opening_hours": "Mo-Su 08:00-20:00", "ref:DK:cvr": "26259495", "ref:DK:cvr:pnummer": "1003079369", "shop": "supermarket", "wheelchair": "yes"}}, {"type": "node", "id": 292175138, "lat": 55.6731288, "lon": 12.5604195, "tags": {"amenity": "restaurant", "cuisine": "kebab", "fvst:name": "Kebabish DK", "fvst:navnelbnr": "927525", "name": "Kebabish", "opening_hours": "Mo-Th 11:00-24:00, Fr 11:00-02:00, Sa 12:00-02:00, Su 12:00-24:00", "phone": "+45 33226226", "website": "http://www.kebabish.dk/", "wheelchair": "no"}}, {"type": "node", "id": 292352715, "lat": 55.6822975, "lon": 12.5853568, "tags": {"amenity": "restaurant", "fvst:navnelbnr": "118010", "name": "Den Lille Fede", "opening_hours": "Mo-Sa 17:30-22:00", "outdoor_seating": "yes", "payment:credit_cards": "yes", "phone": "+45 33337002", "reservation": "yes", "website": "http://www.denlillefede.com/", "wheelchair": "no"}}, {"type": "node", "id": 292352764, "lat": 55.6826427, "lon": 12.5860671, "tags": {"amenity": "restaurant", "breakfast": "yes", "delivery": "yes", "dinner": "yes", "fvst:navnelbnr": "662899", "lunch": "yes", "name": "Restaurant Vita", "opening_hours": "Mo-Tu 11:30-01:00, 11:30-03:00, Fr-Sa 11:30-05:00, Su 11:30-23:00", "outdoor_seating": "yes", "payment:credit_cards": "yes", "phone": "+45 33118011", "reservation": "yes", "toilets": "yes", "website": "https://restaurantvita.dk/"}}, {"type": "node", "id": 292352917, "lat": 55.6827296, "lon": 12.5865208, "tags": {"amenity": "restaurant", "cuisine": "steak", "dinner": "yes", "facebook": "https://www.facebook.com/pages/Restaurant-Hereford-Steak/187765867903463", "fvst:navnelbnr": "552363", "lunch": "yes", "name": "Hereford Steak", "opening_hours": "mo-sa 12:00-23:00; su 12:00-22:00", "outdoor_seating": "yes", "payment:credit_cards": "yes", "phone": "+45 33911148", "reservation": "yes", "smoking": "no", "takeaway": "yes", "toilets": "yes", "website": "http://www.herefordsteak.dk/"}}, {"type": "node", "id": 292353033, "lat": 55.6841125, "lon": 12.5856999, "tags": {"amenity": "restaurant", "fvst:navnelbnr": "113479", "name": "Royal Garden", "opening_hours": "Tu-Su 12:00-23:00", "opening_hours:kitchen": "Tu-Su 12:00-22:00", "phone": "+45 33151607", "website": "https://www.royalgarden.dk/"}}, {"type": "node", "id": 292353501, "lat": 55.6844872, "lon": 12.5876301, "tags": {"amenity": "restaurant", "cuisine": "mexican", "delivery": "yes", "dinner": "yes", "fvst:navnelbnr": "114318", "name": "El Viejo Mexico", "opening_hours": "Mo 17:00-22:00; Tu-We 17:00-23:00; Th-Sa 17:00-24:00; Su 17:00-22:00", "outdoor_seating": "yes", "payment:credit_cards": "yes", "phone": "+45 33930061", "takeaway": "yes", "toilets": "yes", "website": "https://www.elviejomexico.dk/"}}, {"type": "node", "id": 293871817, "lat": 55.7189491, "lon": 12.4808037, "tags": {"branch": "Tingbjerg", "fvst:navnelbnr": "113500", "name": "Aldi", "name:fa": "\u0622\u0644\u062f\u06cc", "ref:DK:cvr": "59260715", "shop": "supermarket"}}, {"type": "node", "id": 293880454, "lat": 55.6712428, "lon": 12.5010644, "tags": {"branch": "Nordens Plads", "fvst:navnelbnr": "115211", "name": "Meny", "opening_hours": "Mo-Fr 08:00-20:00; Sa 08:00-18:00; Su 08:00-17:00", "ref:DK:cvr": "21778982", "ref:DK:cvr:pnummer": "1005198834", "shop": "supermarket", "website": "https://www.meny.dk/", "wheelchair": "yes"}}, {"type": "node", "id": 293887583, "lat": 55.6611307, "lon": 12.4738586, "tags": {"branch": "Hvidovre", "fvst:navnelbnr": "90662", "name": "F\u00f8tex", "ref:DK:cvr": "35954716", "ref:DK:cvr:pnummer": "1008995199", "shop": "supermarket", "wheelchair": "yes"}}, {"type": "node", "id": 293888735, "lat": 55.6481019, "lon": 12.4761277, "tags": {"branch": "Hvidovre", "brand": "fakta", "brand:wikidata": "Q3172238", "brand:wikipedia": "en:Fakta", "fvst:navnelbnr": "90634", "name": "fakta", "ref:DK:cvr": "11517498", "shop": "supermarket"}}, {"type": "node", "id": 297309579, "lat": 55.6366525, "lon": 12.6422782, "tags": {"branch": "Kastruplundgade", "fvst:navnelbnr": "502011", "name": "fakta", "opening_hours": "Mo-Su 08:00-22:00", "ref:DK:cvr": "11517498", "ref:DK:cvr:pnummer": "1017381985", "shop": "supermarket", "wheelchair": "yes"}}, {"type": "node", "id": 297309580, "lat": 55.6369028, "lon": 12.6414141, "tags": {"branch": "Kastrup", "brand": "Netto", "brand:wikidata": "Q552652", "brand:wikipedia": "da:Netto (supermarkedsk\u00e6de)", "fvst:navnelbnr": "113172", "name": "Netto", "ref:DK:cvr": "35954716", "shop": "supermarket", "wheelchair": "yes"}}, {"type": "node", "id": 297309582, "lat": 55.6360681, "lon": 12.6431341, "tags": {"amenity": "pub", "fvst:navnelbnr": "115369", "name": "Joe's", "wheelchair": "no"}}, {"type": "node", "id": 297318736, "lat": 55.6380617, "lon": 12.6352594, "tags": {"amenity": "pub", "fvst:name": "Scott-Inn Pub", "fvst:navnelbnr": "710617", "name": "Scott-Inn", "ref:DK:cvr": "33662475"}}, {"type": "node", "id": 297366883, "lat": 55.6347611, "lon": 12.6364671, "tags": {"branch": "Kastrup", "brand": "Aldi", "brand:wikidata": "Q125054", "brand:wikipedia": "en:Aldi", "fvst:navnelbnr": "111813", "name": "Aldi", "phone": "+45 7070 7417", "ref:DK:cvr": "59260715", "ref:DK:cvr:pnummer": "1003129880", "shop": "supermarket", "website": "https://www.aldi.dk/", "wheelchair": "yes"}}, {"type": "node", "id": 297975217, "lat": 55.6591891, "lon": 12.6003948, "tags": {"description": "Parcel pickup point, dao and GLS", "name": "Frihedens Kiosk", "opening_hours": "Mo-Th, Su 08:00-23:00; Fr 08:00-24:00; Sa 09:00-00:00", "opening_hours:covid19": "same", "owner": "Ghiyas Iqbal", "payment:cash": "yes", "payment:credit_cards": "yes", "phone": "+45 32 55 38 21", "shop": "convenience"}}, {"type": "node", "id": 297978949, "lat": 55.6423765, "lon": 12.616737, "tags": {"branch": "Amagerbrogade", "name": "Express", "shop": "convenience"}}, {"type": "node", "id": 297980181, "lat": 55.6511201, "lon": 12.6208885, "tags": {"branch": "Kastrupvej", "brand": "Netto", "brand:wikidata": "Q552652", "brand:wikipedia": "da:Netto (supermarkedsk\u00e6de)", "fvst:navnelbnr": "113752", "name": "Netto", "opening_hours": "07:00-24:00", "ref:DK:cvr": "35954716", "ref:DK:cvr:pnummer": "1003016775", "shop": "supermarket"}}, {"type": "node", "id": 297982125, "lat": 55.6539367, "lon": 12.6192478, "tags": {"created_by": "Potlatch 0.10b", "name": "L\u00e6kkerland", "shop": "convenience"}}, {"type": "node", "id": 297984112, "lat": 55.6629166, "lon": 12.6022051, "tags": {"amenity": "cafe", "cuisine": "coffee_shop", "fvst:name": "Baresso Coffee", "fvst:navnelbnr": "117576", "name": "Espresso Coffee", "opening_hours": "Mo-Su 08:00-18:00"}}, {"type": "node", "id": 297987683, "lat": 55.6644431, "lon": 12.602665, "tags": {"name": "Jakob's Bageri", "phone": "+4532950950", "shop": "bakery", "wheelchair": "limited"}}, {"type": "node", "id": 298078187, "lat": 55.698597, "lon": 12.5761653, "tags": {"alt_name": "Bindia", "amenity": "restaurant", "brand": "Bindia", "cuisine": "indian;chicken;sushi;asian", "delivery": "yes", "description": "Bindia is a chain of Indian food (Indisk Mad) Take Aways in \u00d8sterbro Copenhagen. Amer Sulman is the founder & head chef of Bindia. Here, we cook certified organic Indian food (30-60%) without any additives and preservatives.", "diet:halal": "yes", "diet:non-vegetarian": "yes", "diet:organic": "yes", "diet:vegan": "yes", "diet:vegetarian": "yes", "email": "office@bindia.dk", "fvst:navnelbnr": "115275", "image": "https://www.bindia.dk/themes/2016/img/logo.png", "name": "Bindia Indisk Mad Take Away \u00d8sterbro", "name:en": "Bindia Indian Food Take Away \u00d8sterbro", "opening_hours": "Mo-Su 16:00-21:00", "outdoor_seating": "yes", "phone": "+45 35438838", "takeaway": "yes", "website": "https://www.bindia.dk/", "wheelchair": "yes"}}, {"type": "node", "id": 298078717, "lat": 55.6727928, "lon": 12.4877444, "tags": {"branch": "\u00c5lholm Plads", "brand": "Irma", "brand:wikidata": "Q797150", "brand:wikipedia": "en:Irma (supermarket)", "fvst:navnelbnr": "115683", "name": "Irma", "ref:DK:cvr": "26259495", "ref:DK:cvr:pnummer": "1003074148", "shop": "supermarket"}}, {"type": "node", "id": 298630613, "lat": 55.6846855, "lon": 12.5820711}, {"type": "node", "id": 298630614, "lat": 55.6845705, "lon": 12.5819766}, {"type": "node", "id": 298630615, "lat": 55.6845496, "lon": 12.5820564}, {"type": "node", "id": 298630616, "lat": 55.6845045, "lon": 12.5820193}, {"type": "node", "id": 298630617, "lat": 55.6844686, "lon": 12.5821566}, {"type": "node", "id": 298630618, "lat": 55.6846493, "lon": 12.5823051}, {"type": "node", "id": 298723448, "lat": 55.6976437, "lon": 12.5781018, "tags": {"amenity": "cafe", "description": "This caf\u00e9 has outdoor tables by the lake under trees and coloured lanterns. The menu is mostly caf\u00e9 classics like filled croissants, nachos, chilli con carne, pasta, burgers, but during the summer there's barbecue available until the late hours. From 98kr", "fvst:navnelbnr": "114922", "name": "Den Franske Cafe", "opening_hours": "Mo-Fr 09:00-23:00; Sa,Su,PH 10:00-23:00", "phone": "+45 35424845", "website": "http://denfranskecafe.dk/", "wheelchair": "limited"}}, {"type": "node", "id": 298723918, "lat": 55.6867256, "lon": 12.5617007, "tags": {"amenity": "cafe", "cuisine": "regional", "fvst:navnelbnr": "112893", "name": "Kaffesalonen", "opening_hours": "Mo-Fr 08:00-24:00; Sa-Su 10:00-24:00", "outdoor_seating": "yes", "phone": "+45 35351219", "website": "https://www.kaffesalonen.com/"}}, {"type": "node", "id": 298723979, "lat": 55.687174, "lon": 12.5621406, "tags": {"amenity": "restaurant", "cuisine": "burger", "fvst:navnelbnr": "548861", "name": "Sliders", "opening_hours": "Tu-Sa 11:00-22:00; Su 11:00-21:00"}}, {"type": "node", "id": 298795699, "lat": 55.6695947, "lon": 12.5646074, "tags": {"amenity": "restaurant", "cuisine": "regional", "fvst:name": "DGI-Byen Vestauranten", "fvst:navnelbnr": "546260", "name": "Vestauranten", "opening_hours": "17:00-23:00; Su 11:00-14:00", "phone": "+45 33298020", "website": "https://www.dgi-byen.dk/vestauranten/", "wheelchair": "yes"}}, {"type": "node", "id": 298796142, "lat": 55.6726211, "lon": 12.5607845, "tags": {"amenity": "restaurant", "fvst:name": "Best Western Hotel Hebron Morgenmadsrestaurant", "fvst:navnelbnr": "110674", "name": "Hebron", "operator": "Best Western", "tourism": "hotel", "website": "https://www.hebron.dk/"}}, {"type": "node", "id": 299394870, "lat": 55.6685937, "lon": 12.5969145, "tags": {"brand": "Netto", "brand:wikidata": "Q552652", "brand:wikipedia": "da:Netto (supermarkedsk\u00e6de)", "name": "D\u00f8gn Netto", "opening_hours": "Mo-Su 08:00-22:00", "phone": "+45 8778 7811", "shop": "supermarket", "website": "https://netto.dk/"}}, {"type": "node", "id": 299498832, "lat": 55.701456, "lon": 12.5211143}, {"type": "node", "id": 299742487, "lat": 55.7009243, "lon": 12.5667043}, {"type": "node", "id": 299742488, "lat": 55.7008804, "lon": 12.5667189}, {"type": "node", "id": 299742489, "lat": 55.7008465, "lon": 12.5668042}, {"type": "node", "id": 300410990, "lat": 55.6810855, "lon": 12.5804647, "tags": {"amenity": "pub", "fvst:navnelbnr": "113153", "name": "The Moose"}}, {"type": "node", "id": 300411209, "lat": 55.6822476, "lon": 12.5827205, "tags": {"amenity": "restaurant", "cuisine": "regional", "fvst:navnelbnr": "112715", "name": "Godt", "opening_hours": "Tu-Sa 18:00-24:00", "phone": "+45 33152122", "website": "http://www.restaurant-godt.dk/", "wikidata": "Q23831010"}}, {"type": "node", "id": 301511854, "lat": 55.6815478, "lon": 12.5822074, "tags": {"amenity": "cafe", "fvst:navnelbnr": "113502", "name": "Det Elektriske Hj\u00f8rne", "note": "Mo 11-24", "smoking": "no"}}, {"type": "node", "id": 302050860, "lat": 55.7343479, "lon": 12.5139245, "tags": {"amenity": "cafe", "fvst:navnelbnr": "767803", "name": "Fik-Ret"}}, {"type": "node", "id": 302051318, "lat": 55.7602926, "lon": 12.4841084}, {"type": "node", "id": 304514540, "lat": 55.6941357, "lon": 12.5103328, "tags": {"brand": "Rema 1000", "brand:wikidata": "Q28459", "brand:wikipedia": "en:REMA 1000", "fvst:navnelbnr": "764227", "name": "Rema 1000", "opening_hours": "Mo-Su 07:00-22:00", "ref:DK:cvr": "36090227", "shop": "supermarket", "url": "https://rema1000.dk/stores/447/"}}, {"type": "node", "id": 304514546, "lat": 55.6924135, "lon": 12.5136116, "tags": {"branch": "Godth\u00e5bsvej", "brand": "Irma", "brand:wikidata": "Q797150", "brand:wikipedia": "en:Irma (supermarket)", "fvst:navnelbnr": "113956", "name": "Irma", "ref:DK:cvr": "26259495", "ref:DK:cvr:pnummer": "1003586153", "shop": "supermarket"}}, {"type": "node", "id": 305260437, "lat": 55.6345603, "lon": 12.5885828, "tags": {"amenity": "restaurant", "brand": "Chili's", "brand:wikidata": "Q1072948", "brand:wikipedia": "en:Chili's", "cuisine": "italian", "fvst:name": "Chilispizza.dk", "fvst:navnelbnr": "716495", "name": "Chili's", "official_name": "Chili's Grill & Bar", "opening_hours": "Mo-Su 14:00-22:00", "website": "https://chilispizza.dk/", "wheelchair": "no"}}, {"type": "node", "id": 307404999, "lat": 55.7514077, "lon": 12.5193213, "tags": {"amenity": "restaurant", "cuisine": "chinese", "fvst:navnelbnr": "635369", "name": "Ny Zi Yang", "opening_hours": "14:00-23:00", "phone": "+45 39658280", "takeaway": "yes"}}, {"type": "node", "id": 307614875, "lat": 55.6692418, "lon": 12.5791679, "tags": {"amenity": "restaurant", "capacity": "80", "fvst:navnelbnr": "542543", "name": "Aristo", "opening_hours": "Mo-Fr 11:00-21:30; Sa 11:00-22:00; Su 10:00-20:00", "phone": "+45 32 95 83 30", "website": "http://www.restaurantaristo.dk/"}}, {"type": "node", "id": 307614912, "lat": 55.6669073, "lon": 12.5763106, "tags": {"amenity": "cafe", "fvst:navnelbnr": "115388", "internet_access": "wlan", "name": "Bryggens Spisehus", "opening_hours": "Mo-We 10:00-23:00; Th-Sa 10:00-24:00; Su 10:00-22:00", "phone": "+45 32 54 00 82", "website": "http://bryggens.dk", "wheelchair": "yes"}}, {"type": "node", "id": 307614990, "lat": 55.6668195, "lon": 12.5786055, "tags": {"branch": "Njalsgade", "fvst:navnelbnr": "112982", "name": "fakta", "opening_hours": "Mo-Su 08:00-22:00", "ref:DK:cvr": "11517498", "ref:DK:cvr:pnummer": "1003168389", "shop": "supermarket"}}, {"type": "node", "id": 307615946, "lat": 55.725766, "lon": 12.5797024, "tags": {"amenity": "cafe", "branch": "Waterfront", "brand": "Joe & The Juice", "brand:wikidata": "Q26221514", "brand:wikipedia": "en:Joe & The Juice", "cuisine": "coffee_shop", "diet:gluten_free": "yes", "fvst:navnelbnr": "512195", "internet_access": "wlan", "name": "Joe & The Juice", "outdoor_seating": "yes", "smoking": "outside", "takeaway": "yes", "website": "https://www.joejuice.com/", "wheelchair": "yes"}}, {"type": "node", "id": 307616142, "lat": 55.7273816, "lon": 12.5762836, "tags": {"amenity": "cafe", "fvst:fixme": "fvst:no_pos", "fvst:navnelbnr": "538943", "name": "Caf\u00e9 Rotunden", "opening_hours": "10:00-22:00", "phone": "+45 39612638", "website": "https://caferotunden.dk/"}}, {"type": "node", "id": 307618896, "lat": 55.691746, "lon": 12.4810927, "tags": {"branch": "\u00c5lekistevej", "brand": "Netto", "brand:wikidata": "Q552652", "brand:wikipedia": "da:Netto (supermarkedsk\u00e6de)", "fvst:navnelbnr": "112643", "name": "Netto", "name:fa": "\u0646\u062a\u0648", "opening_hours": "07:00-24:00", "ref:DK:cvr": "35954716", "shop": "supermarket"}}, {"type": "node", "id": 307619191, "lat": 55.6824901, "lon": 12.483659, "tags": {"branch": "\u00c5lekistevej", "fvst:navnelbnr": "113088", "name": "SuperBrugsen", "opening_hours": "Mo-Su 08:00-21:00", "ref:DK:cvr": "26259495", "ref:DK:cvr:pnummer": "1003079229", "shop": "supermarket"}}, {"type": "node", "id": 307619209, "lat": 55.6803997, "lon": 12.4843542, "tags": {"branch": "\u00c5lekistevej", "fvst:navnelbnr": "113512", "name": "Fakta", "ref:DK:cvr": "11517498", "shop": "supermarket", "source": "Kaart Ground Survey 2017"}}, {"type": "node", "id": 307619293, "lat": 55.6879025, "lon": 12.4936206, "tags": {"brand": "F\u00f8tex", "brand:wikidata": "Q1480395", "brand:wikipedia": "en:F\u00f8tex", "name": "F\u00f8tex", "opening_hours": "Mo-Su 08:00-21:00", "shop": "supermarket"}}, {"type": "node", "id": 307619467, "lat": 55.6823918, "lon": 12.505123, "tags": {"branch": "Dirch Passers All\u00e9", "fvst:navnelbnr": "116441", "name": "Lidl", "name:fa": "\u0644\u06cc\u062f\u0644", "ref:DK:cvr": "26630797", "shop": "supermarket", "wheelchair": "yes"}}, {"type": "node", "id": 307619479, "lat": 55.6818565, "lon": 12.5082318, "tags": {"branch": "Finsensvej", "fvst:navnelbnr": "114582", "name": "fakta", "ref:DK:cvr": "11517498", "ref:DK:cvr:pnummer": "1003078702", "shop": "supermarket"}}, {"type": "node", "id": 307619660, "lat": 55.6816241, "lon": 12.5163259, "tags": {"branch": "Finsensvej", "brand": "Netto", "brand:wikidata": "Q552652", "brand:wikipedia": "da:Netto (supermarkedsk\u00e6de)", "fvst:navnelbnr": "113167", "name": "Netto", "opening_hours": "Mo-Su 08:00-22:00", "payment:cash": "yes", "payment:credit_cards": "yes", "ref:DK:cvr": "35954716", "ref:DK:cvr:pnummer": "1003016465", "shop": "supermarket"}}, {"type": "node", "id": 307619754, "lat": 55.6882384, "lon": 12.52648, "tags": {"branch": "Godth\u00e5bsvej", "brand": "Netto", "brand:wikidata": "Q552652", "brand:wikipedia": "da:Netto (supermarkedsk\u00e6de)", "fvst:navnelbnr": "113174", "name": "Netto", "name:fa": "\u0646\u062a\u0648", "opening_hours": "Mo-Su 08:00-22:00", "payment:cash": "yes", "payment:credit_cards": "yes", "ref:DK:cvr": "35954716", "ref:DK:cvr:pnummer": "1003819176", "shop": "supermarket", "wheelchair": "yes"}}, {"type": "node", "id": 307666484, "lat": 55.6923511, "lon": 12.4629863, "tags": {"created_by": "Potlatch 0.10f", "shop": "convenience"}}, {"type": "node", "id": 308755815, "lat": 55.6673118, "lon": 12.4379562, "tags": {"branch": "Br\u00f8ndby\u00f8ster", "brand": "Netto", "brand:wikidata": "Q552652", "brand:wikipedia": "en:Netto (store)", "fvst:navnelbnr": "769263", "name": "Netto", "opening_hours": "Mo-Su 08:00-22:00", "ref:DK:cvr": "35954716", "shop": "supermarket", "start_date": "2018-12-13", "website": "https://www.netto.dk/"}}, {"type": "node", "id": 311470440, "lat": 55.681192, "lon": 12.576282, "tags": {"access": "students", "amenity": "cafe", "contact:website": "http://studenterhuset.com", "fvst:name": "FORENINGEN STUDENTERHUSET", "fvst:navnelbnr": "111290", "internet_access": "wlan", "name": "Studenterhuset", "opening_hours": "Mo-We 08:00-24:00, Th 08:00-01:00, Fr 08:00-03:00, Sa 10:00-02:00, Su 10:00-22:00", "operator": "FORENINGEN STUDENTERHUSET", "smoking": "no", "website": "https://studenterhuset.com/", "wheelchair": "no"}}, {"type": "node", "id": 312164707, "lat": 55.7686975, "lon": 12.5055762, "tags": {"name": "Meny", "opening_hours": "Mo-Fr 09:00-20:00; Sa-Su 08:00-19:00", "phone": "+4545877847", "shop": "supermarket", "website": "https://www.meny.dk/", "wheelchair": "yes"}}, {"type": "node", "id": 312375629, "lat": 55.7718562, "lon": 12.5069553, "tags": {"branch": "Lyngby Storcenter", "name": "7-Eleven", "opening_hours": "24/7", "shop": "convenience"}}, {"type": "node", "id": 312710995, "lat": 55.6745495, "lon": 12.568047}, {"type": "node", "id": 312710996, "lat": 55.674581, "lon": 12.5682272}, {"type": "node", "id": 312710997, "lat": 55.6745292, "lon": 12.5683502}, {"type": "node", "id": 312710998, "lat": 55.674405, "lon": 12.5683241}, {"type": "node", "id": 312710999, "lat": 55.6743735, "lon": 12.5681439}, {"type": "node", "id": 312711000, "lat": 55.6744129, "lon": 12.5680353}, {"type": "node", "id": 312711001, "lat": 55.6744457, "lon": 12.5680053}, {"type": "node", "id": 312711002, "lat": 55.6744824, "lon": 12.5679971}, {"type": "node", "id": 312711003, "lat": 55.6745184, "lon": 12.5680115}, {"type": "node", "id": 312711295, "lat": 55.6741868, "lon": 12.5689946}, {"type": "node", "id": 312711296, "lat": 55.6741333, "lon": 12.5690287}, {"type": "node", "id": 312711297, "lat": 55.674077, "lon": 12.5691581}, {"type": "node", "id": 312711298, "lat": 55.6740383, "lon": 12.5693135}, {"type": "node", "id": 312711299, "lat": 55.6741247, "lon": 12.5692166}, {"type": "node", "id": 312711300, "lat": 55.6741783, "lon": 12.569095}, {"type": "node", "id": 313709499, "lat": 55.6844488, "lon": 12.5541773, "tags": {"amenity": "restaurant", "capacity": "25", "cuisine": "tapas", "fvst:navnelbnr": "559394", "name": "Temporada Tapasbodega", "note": "There has been several restaurants at the address, Visent, Da Mario, and others.", "opening_hours": "We-Sa 15:00-23:00", "phone": "+45 35351515", "website": "https://www.tapas-bar.dk/"}}, {"type": "node", "id": 313709771, "lat": 55.6854075, "lon": 12.5568466, "tags": {"branch": "Bl\u00e5g\u00e5rdsgade", "brand": "Netto", "brand:wikidata": "Q552652", "brand:wikipedia": "da:Netto (supermarkedsk\u00e6de)", "fvst:navnelbnr": "113165", "name": "Netto", "name:fa": "\u0646\u062a\u0648", "opening_hours": "08:00-22:00", "ref:DK:cvr": "35954716", "shop": "supermarket", "wheelchair": "yes"}}, {"type": "node", "id": 313709805, "lat": 55.6857123, "lon": 12.5514147, "tags": {"branch": "Rantzausgade", "brand": "Irma", "brand:wikidata": "Q797150", "brand:wikipedia": "en:Irma (supermarket)", "fvst:navnelbnr": "115676", "name": "Irma", "opening_hours": "Mo-Fr 08:00-21:00; Sa-Su 09:00-21:00", "ref:DK:cvr": "26259495", "ref:DK:cvr:pnummer": "1002741300", "shop": "supermarket", "wheelchair": "yes"}}, {"type": "node", "id": 313709994, "lat": 55.6821764, "lon": 12.5510945, "tags": {"fvst:navnelbnr": "115784", "name": "Rema 1000", "opening_hours": "07:00-22:00", "ref:DK:cvr": "28143729", "shop": "supermarket", "wheelchair": "yes"}}, {"type": "node", "id": 313730187, "lat": 55.6739679, "lon": 12.5915653, "tags": {"amenity": "cafe", "fvst:navnelbnr": "740979", "name": "Cafe Wilder", "website": "http://www.cafewilder.dk/", "wheelchair": "limited"}}, {"type": "node", "id": 313730277, "lat": 55.6740554, "lon": 12.5916958, "tags": {"amenity": "pub", "fvst:navnelbnr": "111916", "name": "Eiffel Bar", "smoking": "yes", "wheelchair": "no"}}, {"type": "node", "id": 313730425, "lat": 55.6740667, "lon": 12.5913858, "tags": {"amenity": "cafe", "fvst:name": "LUNAS DINER", "fvst:navnelbnr": "755489", "name": "Cafe Luna"}}, {"type": "node", "id": 313733387, "lat": 55.6876216, "lon": 12.5597898, "tags": {"amenity": "cafe", "cuisine": "coffee_shop", "fvst:name": "Props Coffe Shop", "fvst:navnelbnr": "798623", "name": "Props Coffee Shop", "opening_hours": "Mo-We 11:00-00:00, Th-Sa 11:00-02:00, Su 12:00-23:00", "wikidata": "Q31522697"}}, {"type": "node", "id": 314080534, "lat": 55.677704, "lon": 12.5723429, "tags": {"amenity": "bank", "atm": "yes", "name": "JD", "operator": "Danske Bank", "shop": "shoes"}}, {"type": "node", "id": 316122206, "lat": 55.6808576, "lon": 12.5490603, "tags": {"name": "Henrik Jonsbak", "shop": "bakery"}}, {"type": "node", "id": 316122207, "lat": 55.6814563, "lon": 12.5495147, "tags": {"amenity": "pub", "fvst:fixme": "fvst:no_pos", "fvst:navnelbnr": "955287", "name": "Bodega 48", "ref:DK:cvr": "36152680"}}, {"type": "node", "id": 317323339, "lat": 55.7677897, "lon": 12.5047816, "tags": {"branch": "Lyngby", "brand": "Netto", "brand:wikidata": "Q552652", "brand:wikipedia": "da:Netto (supermarkedsk\u00e6de)", "fvst:navnelbnr": "757230", "name": "Netto", "ref:DK:cvr": "35954716", "shop": "supermarket"}}, {"type": "node", "id": 317323342, "lat": 55.7686948, "lon": 12.5024007, "tags": {"branch": "Lyngby", "fvst:navnelbnr": "93210", "name": "fakta", "ref:DK:cvr": "11517498", "shop": "supermarket"}}, {"type": "node", "id": 317686528, "lat": 55.7756451, "lon": 12.5215089, "tags": {"branch": "Lyngbyg\u00e5rdsvej Lyngby", "brand": "SuperBrugsen", "brand:wikidata": "Q12337746", "brand:wikipedia": "en:SuperBrugsen", "fvst:navnelbnr": "94219", "name": "SuperBrugsen", "opening_hours": "Mo-Fr 08:00-20:00", "ref:DK:cvr": "26259495", "ref:DK:cvr:pnummer": "1003078635", "shop": "supermarket"}}, {"type": "node", "id": 324748208, "lat": 55.6962598, "lon": 12.4573987, "tags": {"brand": "Netto", "brand:wikidata": "Q552652", "brand:wikipedia": "da:Netto (supermarkedsk\u00e6de)", "fvst:navnelbnr": "91375", "name": "Netto", "name:fa": "\u0646\u062a\u0648", "ref:DK:cvr": "35954716", "shop": "supermarket"}}, {"type": "node", "id": 324748265, "lat": 55.6958571, "lon": 12.4584569, "tags": {"brand": "fakta", "brand:wikidata": "Q3172238", "brand:wikipedia": "en:Fakta", "fvst:navnelbnr": "90633", "name": "fakta", "ref:DK:cvr": "11517498", "shop": "supermarket"}}, {"type": "node", "id": 324748488, "lat": 55.695854, "lon": 12.4581473, "tags": {"shop": "convenience"}}, {"type": "node", "id": 330109598, "lat": 55.7093727, "lon": 12.5621976, "tags": {"branch": "Lyngbyvej", "fvst:navnelbnr": "540371", "name": "Irma", "ref:DK:cvr": "26259495", "ref:DK:cvr:pnummer": "1003073657", "shop": "supermarket"}}, {"type": "node", "id": 330211759, "lat": 55.6323871, "lon": 12.5800902, "tags": {"branch": "\u00d8restads Boulevard", "brand": "Netto", "brand:wikidata": "Q552652", "brand:wikipedia": "da:Netto (supermarkedsk\u00e6de)", "fvst:navnelbnr": "119204", "name": "Netto", "opening_hours": "Mo-Su 07:00-22:00", "ref:DK:cvr": "35954716", "shop": "supermarket", "wheelchair": "yes"}}, {"type": "node", "id": 332573745, "lat": 55.7127896, "lon": 12.5593766, "tags": {"amenity": "pub", "fvst:navnelbnr": "112634", "name": "Polar Bodega", "wheelchair": "no"}}, {"type": "node", "id": 332631824, "lat": 55.6944927, "lon": 12.5708568, "tags": {"branch": "Ryesgade", "brand": "Irma", "brand:wikidata": "Q797150", "brand:wikipedia": "en:Irma (supermarket)", "fvst:navnelbnr": "115681", "name": "Irma", "ref:DK:cvr": "26259495", "ref:DK:cvr:pnummer": "1003074033", "shop": "supermarket"}}, {"type": "node", "id": 332631902, "lat": 55.6958385, "lon": 12.5724364, "tags": {"amenity": "cafe", "cuisine": "coffee_shop", "fvst:navnelbnr": "659145", "name": "Shabaz Ryesgade", "old_name": "Riccos", "opening_hours": "Mo-Fr 08:00-22:00; Sa-Su 09:00-20:00", "phone": "+45 36896060", "website": "https://www.shabaz.dk/", "wheelchair": "no"}}, {"type": "node", "id": 334488835, "lat": 55.7062497, "lon": 12.5343603, "tags": {"amenity": "restaurant", "cuisine": "italian", "fvst:navnelbnr": "119711", "name": "Tribeca NV", "opening_hours": "Mo-Th 12:00-22:00; Fr-Sa 02:00-23:00; Su 05:00-21:00", "phone": "+45 35851050", "price": "DKK 135", "website": "http://tribecanv.dk/", "wheelchair": "yes"}}, {"type": "node", "id": 334648651, "lat": 55.7058837, "lon": 12.5760968, "tags": {"branch": "\u00d8sterf\u00e6lled Torv", "brand": "Meny", "brand:wikidata": "Q10581720", "brand:wikipedia": "en:Meny", "fvst:navnelbnr": "116808", "name": "Meny", "opening_hours": "Mo-Fr 09:00-20:00; Sa 08:00-19:00; Su 09:00-19:00", "post_office": "yes", "ref:DK:cvr": "31991900", "ref:DK:cvr:pnummer": "1015140727", "shop": "supermarket", "website": "https://meny.dk/butik/meny-oesterfaelled-torv", "wheelchair": "yes"}}, {"type": "node", "id": 335638323, "lat": 55.7274398, "lon": 12.5495697, "tags": {"branch": "Hellerup Lyngbyvej", "brand": "Netto", "brand:wikidata": "Q552652", "brand:wikipedia": "da:Netto (supermarkedsk\u00e6de)", "fvst:navnelbnr": "91363", "name": "Netto", "opening_hours": "Mo-Su 08:00-22:00", "ref:DK:cvr": "35954716", "shop": "supermarket"}}, {"type": "node", "id": 335640406, "lat": 55.6897816, "lon": 12.5197413, "tags": {"branch": "Godth\u00e5bsvej", "fvst:navnelbnr": "111202", "name": "Min K\u00f8bmand", "ref:DK:cvr": "31593352", "ref:DK:cvr:pnummer": "1014559937", "shop": "supermarket"}}, {"type": "node", "id": 335679944, "lat": 55.6828339, "lon": 12.5744665, "tags": {"amenity": "restaurant", "cuisine": "thai", "fvst:name": "Ricemarked", "fvst:navnelbnr": "125973", "name": "Ricemarket", "opening_hours": "12:00-24:00", "phone": "+45 35357530", "smoking": "no", "website": "https://www.ricemarket.dk/", "wheelchair": "no"}}, {"type": "node", "id": 335947801, "lat": 55.708306, "lon": 12.483331, "tags": {"branch": "Frederikssundsvej", "brand": "Netto", "brand:wikidata": "Q552652", "brand:wikipedia": "da:Netto (supermarkedsk\u00e6de)", "fvst:navnelbnr": "117724", "name": "Netto", "name:fa": "\u0646\u062a\u0648", "opening_hours": "Mo-Su 08:00-22:00", "payment:cash": "yes", "payment:credit_cards": "yes", "ref:DK:cvr": "35954716", "shop": "supermarket"}}, {"type": "node", "id": 335962972, "lat": 55.6953457, "lon": 12.543356, "tags": {"amenity": "pub", "fvst:navnelbnr": "720885", "internet_access": "wlan", "internet_access:fee": "no", "name": "Caf\u00e9 Stefanshus", "opening_hours": "Mo-We 08:00-01:00,Th-Sa 08:00-01:00,Su 11:00-23:00", "website": "http://www.acedesign.dk/stefanshus/", "wheelchair": "limited"}}, {"type": "node", "id": 335962988, "lat": 55.6936275, "lon": 12.5424382, "tags": {"amenity": "cafe", "cuisine": "coffee_shop", "fvst:name": "THE COFFEE COLLECTIVE KAFFEBAR", "fvst:navnelbnr": "701705", "internet_access": "wlan", "internet_access:fee": "customers", "name": "The Coffee Collective Kaffebar J\u00e6gersborggade", "opening_hours": "Mo-Fr 07:00-19:00; Sa 08:00-19:00; Su 08:00-19:00", "phone": "+45 60151525", "website": "http://coffeecollective.dk/bars/jaegersborggade/"}}, {"type": "node", "id": 335975477, "lat": 55.6934573, "lon": 12.547615, "tags": {"amenity": "restaurant", "cuisine": "greek", "fvst:name": "Kreta Gr\u00e6sk Taverna", "fvst:navnelbnr": "116773", "name": "Kreta", "opening_hours": "16:00-24:00", "opening_hours:kitchen": "16:00-22:00"}}, {"type": "node", "id": 338895632, "lat": 55.7059428, "lon": 12.4909738, "tags": {"branch": "Br\u00f8nsh\u00f8j", "fvst:navnelbnr": "520087", "name": "fakta", "opening_hours": "Mo-Su 08:00-22:00", "ref:DK:cvr": "11517498", "shop": "supermarket"}}, {"type": "node", "id": 338895636, "lat": 55.7057203, "lon": 12.492081, "tags": {"branch": "Br\u00f8nsh\u00f8j", "brand": "Netto", "brand:wikidata": "Q552652", "brand:wikipedia": "da:Netto (supermarkedsk\u00e6de)", "fvst:navnelbnr": "114569", "name": "Netto", "name:fa": "\u0646\u062a\u0648", "opening_hours": "Mo-Su 08:00-22:00", "ref:DK:cvr": "35954716", "ref:DK:cvr:pnummer": "1003016702", "shop": "supermarket"}}, {"type": "node", "id": 338895704, "lat": 55.7057445, "lon": 12.5105432, "tags": {"branch": "Bellah\u00f8j", "fvst:navnelbnr": "113515", "name": "Fakta", "opening_hours": "Mo-Su 08:00-20:00", "ref:DK:cvr": "11517498", "shop": "supermarket"}}, {"type": "node", "id": 340502719, "lat": 55.6711195, "lon": 12.5457687, "tags": {"alt_name": "Tove Ditlevsens Mindehave", "amenity": "restaurant", "cuisine": "regional;sm\u00f8rrebr\u00f8d", "dinner": "yes", "facebook": "https://www.facebook.com/pages/Restaurant-Klubben/132235606835821", "fvst:navnelbnr": "119339", "name": "Restaurant Klubben", "opening_hours": "11:00-23:00", "outdoor_seating": "yes", "payment:credit_cards": "yes", "phone": "+45 33314015", "reservation": "yes", "toilets": "yes", "website": "http://www.restaurant-klubben.dk/"}}, {"type": "node", "id": 340581907, "lat": 55.6670575, "lon": 12.5253346, "tags": {"amenity": "restaurant", "fvst:fixme": "missing position", "fvst:navnelbnr": "561031", "name": "Bj\u00e6lkehuset", "opening_hours": "Apr 1-Dec 20 11:00-17:00", "outdoor_seating": "yes", "phone": "+45 36303596", "website": "https://www.bjaelke-huset.dk/"}}, {"type": "node", "id": 343797702, "lat": 55.7473621, "lon": 12.5412404, "tags": {"branch": "Gentofte", "brand": "Netto", "brand:wikidata": "Q552652", "brand:wikipedia": "da:Netto (supermarkedsk\u00e6de)", "fvst:navnelbnr": "93284", "name": "Netto", "ref:DK:cvr": "35954716", "shop": "supermarket"}}, {"type": "node", "id": 370375480, "lat": 55.6714574, "lon": 12.5928455, "tags": {"brand": "Irma", "brand:wikidata": "Q797150", "brand:wikipedia": "en:Irma (supermarket)", "fvst:navnelbnr": "115682", "name": "Irma", "opening_hours": "Mo-Fr 09:00-20:00; Sa 09:00-19:00; Su 10:00-19:00", "ref:DK:cvr": "26259495", "ref:DK:cvr:pnummer": "1003074057", "shop": "supermarket", "wheelchair": "no"}}, {"type": "node", "id": 371823395, "lat": 55.7065001, "lon": 12.5851034, "tags": {"branch": "\u00c5rhusgade", "fvst:navnelbnr": "114895", "name": "fakta", "opening_hours": "Mo-Su 07:00-22:00", "ref:DK:cvr": "11517498", "shop": "supermarket", "wheelchair": "no"}}, {"type": "node", "id": 383997679, "lat": 55.7701814, "lon": 12.5058079, "tags": {"amenity": "restaurant", "cuisine": "japanese", "fvst:name": "Sticks N Sushi", "fvst:navnelbnr": "96403", "name": "Sticks 'N' Sushi Lyngby", "opening_hours": "Mo-Th 10:00-22:30; Fr-Sa 10:00-23:00; Su 10:00-22:00", "phone": "+45 458700 4", "website": "http://www.sushi.dk/restauranter/lyngby.html", "wheelchair": "yes"}}, {"type": "node", "id": 404388472, "lat": 55.7658686, "lon": 12.4889594, "tags": {"branch": "Engelsborgvej Lyngby", "brand": "Netto", "brand:wikidata": "Q552652", "brand:wikipedia": "da:Netto (supermarkedsk\u00e6de)", "fvst:navnelbnr": "93006", "name": "Netto", "opening_hours": "24/7", "ref:DK:cvr": "35954716", "shop": "supermarket", "website": "https://netto.dk"}}, {"type": "node", "id": 413370337, "lat": 55.6809339, "lon": 12.5797502, "tags": {"brand": "7-Eleven", "brand:wikidata": "Q259340", "brand:wikipedia": "en:7-Eleven", "name": "7-Eleven", "shop": "convenience"}}, {"type": "node", "id": 413370338, "lat": 55.6810813, "lon": 12.5798685, "tags": {"alt_name": "Sjus", "amenity": "bar", "fvst:navnelbnr": "119840", "name": "Sjus Bar", "ref:DK:cvr": "31374057", "website": "https://sjusbar.dk/"}}, {"type": "node", "id": 413532144, "lat": 55.6610976, "lon": 12.5159324, "tags": {"branch": "Tofteg\u00e5rds Plads", "brand": "Meny", "brand:wikidata": "Q10581720", "brand:wikipedia": "en:Meny", "fvst:navnelbnr": "529175", "name": "Meny", "opening_hours": "Mo-Sa 08:00-20:00; Su 10:00-20:00", "ref:DK:cvr": "35245642", "ref:DK:cvr:pnummer": "1018502999", "shop": "supermarket"}}, {"type": "node", "id": 413532145, "lat": 55.6642167, "lon": 12.5159036, "tags": {"branch": "Valby", "brand": "Netto", "brand:wikidata": "Q552652", "brand:wikipedia": "da:Netto (supermarkedsk\u00e6de)", "fvst:navnelbnr": "500507", "name": "Netto", "opening_hours": "Mo-Fr 08:00-20:00; Sa 08:00-17:00", "ref:DK:cvr": "35954716", "shop": "supermarket"}}, {"type": "node", "id": 413532148, "lat": 55.6632977, "lon": 12.5160915, "tags": {"name": "7-Eleven", "opening_hours": "24/7", "shop": "convenience", "wheelchair": "yes"}}, {"type": "node", "id": 413709233, "lat": 55.6618364, "lon": 12.5178605, "tags": {"name": "Elite", "shop": "convenience"}}, {"type": "node", "id": 413712303, "lat": 55.6619096, "lon": 12.5178236, "tags": {"name": "Delfin Textiltryk", "shop": "clothes"}}, {"type": "node", "id": 413712306, "lat": 55.6623353, "lon": 12.517756, "tags": {"fvst:navnelbnr": "932369", "name": "Vores br\u00f8d", "opening_hours": "Mo-Fr 06:00-18:00; Sa-Su 06:00-17:00", "organic": "yes", "ref:DK:cvr": "41076038", "shop": "bakery"}}, {"type": "node", "id": 413719120, "lat": 55.6625023, "lon": 12.5170601, "tags": {"name": "Frk. Schultz", "shop": "clothes"}}, {"type": "node", "id": 413719121, "lat": 55.6624955, "lon": 12.5168435, "tags": {"name": "Wajid International Food Store", "organic": "only", "shop": "convenience"}}, {"type": "node", "id": 413719129, "lat": 55.663092, "lon": 12.5166047, "tags": {"name": "Lynge's Konditori", "opening_hours": "Mo-Th 06:00-14:00; Fr 06:00-13:00; Sa 07:00-13:00; Su 07:00-12:00", "shop": "bakery"}}, {"type": "node", "id": 414225602, "lat": 55.6619369, "lon": 12.5192664, "tags": {"amenity": "restaurant", "cuisine": "sushi", "fvst:navnelbnr": "577060", "name": "Hjem Sushi", "opening_hours": "Mo-Th 11:00-22:00; Fr-Su 11:00-23:00", "website": "https://hjem-sushi.dk/"}}, {"type": "node", "id": 417138238, "lat": 55.6503992, "lon": 12.5274396, "tags": {"amenity": "pub", "fvst:navnelbnr": "112612", "name": "Caf\u00e9 Ellebo"}}, {"type": "node", "id": 417144153, "lat": 55.6497547, "lon": 12.5287561, "tags": {"amenity": "pub", "fvst:navnelbnr": "803789", "name": "Sj\u00e6l\u00f8r Bodega"}}, {"type": "node", "id": 417180523, "lat": 55.6481432, "lon": 12.5293861, "tags": {"amenity": "pub", "fvst:navnelbnr": "527448", "name": "Mozarts Bodega"}}, {"type": "node", "id": 427561448, "lat": 55.7019604, "lon": 12.5583462}, {"type": "node", "id": 427561450, "lat": 55.7019469, "lon": 12.5588374}, {"type": "node", "id": 427561453, "lat": 55.702077, "lon": 12.5584797}, {"type": "node", "id": 428734579, "lat": 55.6809434, "lon": 12.5739275, "tags": {"amenity": "pub", "fvst:navnelbnr": "111501", "name": "Caf\u00e9 Halvvejen", "smoking": "yes", "website": "http://www.cafehalvvejen.dk/", "wheelchair": "no"}}, {"type": "node", "id": 430486590, "lat": 55.668184, "lon": 12.549445, "tags": {"amenity": "cafe", "fvst:navnelbnr": "112630", "name": "Bang & Jensen", "opening_hours": "Mo-Fr 08:00-02:00, Sa 10:00-02:00, Su 10:00-24:00", "phone": "+45 3325 5318", "website": "https://www.bangogjensen.dk/", "wheelchair": "no"}}, {"type": "node", "id": 442948295, "lat": 55.6632195, "lon": 12.5420872, "tags": {"amenity": "bar", "check_date": "2020-12-01", "contact:facebook": "vangandbar", "contact:instagram": "vangandbar", "email": "info@flisenbarandburgers.dk", "fvst:navnelbnr": "553571", "leisure": "fussball", "name": "Vang & Bar", "opening_hours": "Tu 16:00-24:00; We 16:00-01:00; Th-Sa 16:00-02:00", "outdoor_seating": "yes", "phone": "+45 60806085", "smoking": "outside", "table_soccer": "french", "toilets": "yes", "website": "https://www.vangandbar.com/", "wheelchair": "yes"}}, {"type": "node", "id": 447811303, "lat": 55.6821226, "lon": 12.5764493, "tags": {"branch": "Landem\u00e6rket", "brand": "Netto", "brand:wikidata": "Q552652", "brand:wikipedia": "da:Netto (supermarkedsk\u00e6de)", "fvst:navnelbnr": "114568", "name": "Netto", "name:fa": "\u0646\u062a\u0648", "opening_hours": "Mo-Fr 08:00-22:00", "ref:DK:cvr": "35954716", "ref:DK:cvr:pnummer": "1003015998", "shop": "supermarket"}},